LONGITUDE;LATITUDE;CODE_COMMUNE;CODE_POSTAL;COMMUNE
6.465;46.1392;74241;74490;ST JEOIRE
2.2129;48.55;91085;91790;BOISSY SOUS ST YON
6.6616;44.1724;04061;04370;COLMARS
2.81;45.5761;63236;63240;MONT DORE
3.55;50.3452;59383;59770;MARLY
7.6855;48.8703;67291;67580;MERTZWILLER
9.4368;42.92;2B159;20287;MERIA
2.1923;48.8076;92022;92370;CHAVILLE
6.3848;44.339;04205;04140;SEYNE
-0.8831;43.2166;64371;64130;MAULEON LICHARRE
0.9007;48.4358;61061;61110;BRETONCELLES
3.1371;48.8254;77042;77169;BOISSY LE CHATEL
-2.1094;46.8424;85164;85690;NOTRE DAME DE MONTS
3.1767;43.2144;11145;11560;FLEURY
3.1767;43.2144;11145;11560;FLEURY
0.332;43.107;65127;65130;CAPVERN
-1.1026;49.3058;14342;14230;ISIGNY SUR MER
5.0241;47.6737;21304;21580;GRANCEY LE CHATEAU NEUVELLE
5.0241;47.6737;21304;21580;GRANCEY LE CHATEAU NEUVELLE
3.0171;42.7263;66182;66470;STE MARIE
2.5025;49.3149;60013;60940;ANGICOURT
4.649;48.6129;51513;51290;ST REMY EN BOUZEMONT ST GENEST ISSON
8.8338;42.0648;2A270;20151;SARI D ORCINO
9.425;42.6865;2B033;20600;BASTIA
9.425;42.6865;2B033;20200;BASTIA
9.425;42.6865;2B033;20200;BASTIA
2.3787;48.8594;75111;75011;PARIS 11
0.1231;49.3911;14755;14113;VILLERVILLE
2.3375;48.8769;75109;75009;PARIS 09
6.0257;44.7935;05142;05800;ST FIRMIN
5.629;44.8247;38113;38930;CLELLES
2.3441;48.8679;75102;75002;PARIS 02
2.3126;48.8725;75108;75008;PARIS 08
3.0283;42.8128;66017;66420;LE BARCARES
3.0283;42.8128;66017;66420;LE BARCARES
3.4394;50.2425;59558;59227;SAULZOIR
-3.2059;48.0663;56073;56160;GUEMENE SUR SCORFF
-2.8476;48.2806;22384;22460;UZEL
4.042;48.3033;10265;10420;LES NOES PRES TROYES
7.3398;48.1394;68026;68630;BENNWIHR
7.3398;48.1394;68026;68126;BENNWIHR
-0.5742;43.3978;64061;64170;ARTIX
6.5366;45.4857;73181;73600;MOUTIERS
5.6831;49.5361;54234;54730;GORCY
3.1727;43.3825;34140;34490;LIGNAN SUR ORB
3.2893;43.2476;34324;34350;VALRAS PLAGE
4.0535;49.2171;51172;51350;CORMONTREUIL
4.7433;45.7797;69044;69260;CHARBONNIERES LES BAINS
2.3879;48.6569;91286;91350;GRIGNY
1.451;50.0737;80714;80880;ST QUENTIN LA MOTTE CROIX AU BAILLY
3.927;47.0627;58062;58120;CHATEAU CHINON VILLE
6.0994;49.2397;57019;57360;AMNEVILLE
6.0994;49.2397;57019;57360;AMNEVILLE
2.3625;48.8287;75113;75013;PARIS 13
2.2621;48.8604;75116;75116;PARIS 16
2.2621;48.8604;75116;75016;PARIS 16
2.3611;48.876;75110;75010;PARIS 10
2.3594;48.8631;75103;75003;PARIS 03
2.3487;48.8927;75118;75018;PARIS 18
2.4008;48.8632;75120;75020;PARIS 20
5.381;43.2871;13206;13006;MARSEILLE 06
5.3747;43.2417;13208;13008;MARSEILLE 08
5.3747;43.2417;13208;13008;MARSEILLE 08
5.3747;43.2417;13208;13008;MARSEILLE 08
5.4524;43.2342;13209;13009;MARSEILLE 09
5.4524;43.2342;13209;13009;MARSEILLE 09
5.4524;43.2342;13209;13009;MARSEILLE 09
5.4337;43.3493;13213;13013;MARSEILLE 13
5.4337;43.3493;13213;13013;MARSEILLE 13
5.4337;43.3493;13213;13013;MARSEILLE 13
5.4337;43.3493;13213;13013;MARSEILLE 13
5.4337;43.3493;13213;13013;MARSEILLE 13
5.4337;43.3493;13213;13013;MARSEILLE 13
5.3138;43.3646;13216;13016;MARSEILLE 16
5.3138;43.3646;13216;13016;MARSEILLE 16
4.8262;45.7493;69382;69002;LYON 02
4.824;45.7787;69384;69004;LYON 04
4.8023;45.7558;69385;69005;LYON 05
4.8376;45.7334;69387;69007;LYON 07
4.8082;45.7818;69389;69009;LYON 09
6.8439;48.3643;88165;88480;ETIVAL CLAIREFONTAINE
7.7296;48.4832;67131;67114;ESCHAU
5.7522;44.8148;38226;38710;MENS
5.7522;44.8148;38226;38710;MENS
5.59;46.7624;39199;39210;DOMBLANS
-0.17;44.9;33394;33330;ST EMILION
4.7487;44.5541;26198;26200;MONTELIMAR
2.1481;43.2;11254;11290;MONTREAL
1.276;44.4858;46182;46140;LUZECH
2.56;44.3826;12176;12850;ONET LE CHATEAU
2.56;44.3826;12176;12850;ONET LE CHATEAU
4.0043;43.5928;34154;34280;MAUGUIO
4.0043;43.5928;34154;34130;MAUGUIO
2.9824;47.2802;58215;58150;POUILLY SUR LOIRE
3.1769;45.3178;43033;43450;BLESLE
-1.0797;45.5384;33544;33123;LE VERDON SUR MER
-0.6123;44.9232;33056;33290;BLANQUEFORT
7.0377;49.0542;57289;57910;HAMBACH
4.3591;48.3314;10287;10220;PINEY
4.9507;46.7242;71336;71370;OUROUX SUR SAONE
5.5006;43.4911;13060;13590;MEYREUIL
4.9926;43.4232;13077;13110;PORT DE BOUC
1.7631;45.2069;19203;19490;STE FORTUNADE
3.7075;43.7926;34274;34380;ST MARTIN DE LONDRES
2.2494;45.1304;15153;15700;PLEAUX
2.2494;45.1304;15153;15700;PLEAUX
2.2494;45.1304;15153;15700;PLEAUX
2.2494;45.1304;15153;15700;PLEAUX
2.305;44.8564;15196;15220;ST MAMET LA SALVETAT
2.441;42.4201;66150;66230;PRATS DE MOLLO LA PRESTE
2.441;42.4201;66150;66230;PRATS DE MOLLO LA PRESTE
-3.3651;47.8651;56040;56620;CLEGUER
5.3729;45.9608;01004;01500;AMBERIEU EN BUGEY
4.8142;45.5798;38087;38670;CHASSE SUR RHONE
-1.6765;47.8303;35012;35470;BAIN DE BRETAGNE
0.5173;43.2362;65315;65670;MONLEON MAGNOAC
-0.4308;44.9221;33433;33450;ST LOUBES
3.4098;48.0088;89206;89300;JOIGNY
1.814;45.1413;19004;19380;ALBUSSAC
6.0722;46.2583;01313;01280;PREVESSIN MOENS
6.0722;46.2583;01313;01280;PREVESSIN MOENS
1.3407;46.0371;87122;87640;RAZES
1.7011;50.8126;62560;62250;MARQUISE
5.3388;47.8592;52269;52200;LANGRES
5.3388;47.8592;52269;52200;LANGRES
-0.9442;44.7139;33019;33980;AUDENGE
-2.6234;47.8257;56172;56420;PLUMELEC
0.4844;49.5755;76114;76210;BOLBEC
5.5889;46.4001;39016;39240;ARINTHOD
1.065;43.2863;31193;31430;LE FOUSSERET
-0.2515;47.053;79014;79290;ARGENTON L EGLISE
-0.2515;47.053;79014;79290;ARGENTON L EGLISE
0.7585;48.225;61079;61260;CETON
-0.5166;45.2294;33351;33860;REIGNAC
-0.4713;48.0506;53267;53480;VAIGES
2.6213;42.3968;66179;66260;ST LAURENT DE CERDANS
-2.77;48.5442;22187;22190;PLERIN
-2.77;48.5442;22187;22190;PLERIN
-2.77;48.5442;22187;22190;PLERIN
3.6855;44.1476;30231;30940;ST ANDRE DE VALBORGNE
2.6207;50.6933;59615;59232;VIEUX BERQUIN
-0.6346;48.4936;61075;61330;CEAUCE
6.103;45.7071;73146;73340;LESCHERAINES
4.8907;46.6369;71512;71240;SENNECEY LE GRAND
1.3995;49.0222;27448;27120;PACY SUR EURE
5.2003;47.3382;21021;21560;ARC SUR TILLE
0.1442;48.1027;72024;72650;LA BAZOGE
3.2733;47.461;58109;58410;ENTRAINS SUR NOHAIN
-0.9346;47.9459;53077;53230;COSSE LE VIVIEN
-0.416;47.9369;53017;53340;BALLEE
4.7507;47.6718;21004;21510;AIGNAY LE DUC
-2.3252;48.4167;22084;22270;JUGON LES LACS COMMUNE NOUVELLE
-2.3252;48.4167;22084;22270;JUGON LES LACS COMMUNE NOUVELLE
-2.3252;48.4167;22084;22270;JUGON LES LACS COMMUNE NOUVELLE
-2.3252;48.4167;22084;22270;JUGON LES LACS COMMUNE NOUVELLE
6.3636;47.8239;70311;70300;LUXEUIL LES BAINS
-2.3831;47.9222;56165;56800;PLOERMEL
1.7025;46.8403;36063;36130;DEOLS
3.9203;49.564;02720;02150;SISSONNE
5.8812;49.1496;54273;54800;JARNY
5.8812;49.1496;54273;54800;JARNY
0.0539;49.1466;14126;14340;CAMBREMER
0.0539;49.1466;14126;14340;CAMBREMER
0.0539;49.1466;14126;14340;CAMBREMER
0.0539;49.1466;14126;14340;CAMBREMER
3.5629;45.6303;63132;63590;CUNLHAT
5.3498;43.4496;13019;13480;CABRIES
5.3498;43.4496;13019;13480;CABRIES
2.3857;44.0155;81308;81340;VALENCE D ALBIGEOIS
5.8165;44.334;05070;05300;LARAGNE MONTEGLIN
3.5827;44.3162;48061;48400;FLORAC TROIS RIVIERES
3.5827;44.3162;48061;48400;FLORAC TROIS RIVIERES
3.0997;42.4615;66016;66650;BANYULS SUR MER
-0.0514;45.5961;16090;16120;CHATEAUNEUF SUR CHARENTE
5.8062;47.4029;70282;70700;GY
6.3781;43.9463;04022;04330;BARREME
6.2282;43.8383;04135;04360;MOUSTIERS STE MARIE
6.5212;43.1819;83036;83240;CAVALAIRE SUR MER
9.1866;41.9335;2A099;20148;COZZANO
6.6369;45.891;74083;74920;COMBLOUX
8.7305;42.1506;2A348;20118;VICO
8.7305;42.1506;2A348;20160;VICO
3.6862;48.0904;89069;89770;CHAILLEY
2.4917;45.3932;19028;19110;BORT LES ORGUES
3.8779;44.1072;30269;30270;ST JEAN DU GARD
9.2009;41.8078;2A254;20122;QUENZA
0.6965;47.3986;37261;37200;TOURS
0.6965;47.3986;37261;37100;TOURS
0.6965;47.3986;37261;37000;TOURS
1.8708;45.3655;19062;19800;CORREZE
6.2662;47.8785;70467;70800;ST LOUP SUR SEMOUSE
6.4829;44.6424;05036;05380;CHATEAUROUX LES ALPES
3.1278;44.2106;12200;12640;RIVIERE SUR TARN
3.1278;44.2106;12200;12640;RIVIERE SUR TARN
2.4786;50.8778;59663;59470;WORMHOUT
3.0252;49.07;77283;77145;MAY EN MULTIEN
-1.526;47.0597;44223;44140;GENESTON
3.0624;48.0219;45115;45320;COURTENAY
-2.3134;47.4472;44072;44410;HERBIGNAC
-2.3134;47.4472;44072;44410;HERBIGNAC
-2.6468;47.6357;56251;56450;THEIX NOYALO
-2.6468;47.6357;56251;56450;THEIX NOYALO
0.5935;48.036;72118;72390;DOLLON
5.6571;45.1224;38111;38640;CLAIX
5.6414;48.616;55533;55140;VAUCOULEURS
-0.5625;48.7399;61169;61100;FLERS
4.7013;49.4;08490;08400;VOUZIERS
4.7013;49.4;08490;08400;VOUZIERS
-1.2787;48.613;50168;50220;DUCEY LES CHERIS
-1.2787;48.613;50168;50220;DUCEY LES CHERIS
6.6312;48.3459;88367;88700;RAMBERVILLERS
6.2213;48.686;54526;54510;TOMBLAINE
2.7139;43.0835;11351;11220;ST LAURENT DE LA CABRERISSE
-0.315;45.8637;17224;17160;MATHA
0.0365;45.7541;16320;16570;ST GENIS D HIERSAC
8.9901;42.5826;2B352;20279;VILLE DI PARASO
1.4268;43.0243;09042;09240;LA BASTIDE DE SEROU
0.4705;48.551;61029;61560;BAZOCHES SUR HOENE
-1.0601;43.7007;40088;40100;DAX
6.3824;48.0387;88530;88220;XERTIGNY
6.3824;48.0387;88530;88220;XERTIGNY
3.8569;44.1711;48148;48330;ST ETIENNE VALLEE FRANCAISE
6.9381;48.2967;88413;88100;ST DIE DES VOSGES
6.4697;44.9956;05079;05220;LE MONETIER LES BAINS
-1.1753;44.5564;33529;33115;LA TESTE DE BUCH
-1.1753;44.5564;33529;33115;LA TESTE DE BUCH
-1.1753;44.5564;33529;33260;LA TESTE DE BUCH
-1.1753;44.5564;33529;33260;LA TESTE DE BUCH
5.2026;45.305;38561;38980;VIRIVILLE
6.8547;47.8462;88426;88560;ST MAURICE SUR MOSELLE
1.0325;44.3406;82117;82150;MONTAIGU DE QUERCY
2.6358;50.6449;59400;59660;MERVILLE
3.1535;50.6324;59009;59491;VILLENEUVE D ASCQ
3.1535;50.6324;59009;59493;VILLENEUVE D ASCQ
3.1535;50.6324;59009;59650;VILLENEUVE D ASCQ
6.921;44.1299;06094;06470;PEONE
6.921;44.1299;06094;06470;PEONE
4.3683;47.8261;21336;21330;LAIGNES
6.594;49.0355;57209;57380;FAULQUEMONT
6.594;49.0355;57209;57380;FAULQUEMONT
5.6567;43.6334;13048;13490;JOUQUES
4.075;44.1659;30284;30520;ST MARTIN DE VALGALGUES
4.4609;48.2461;10401;10140;VENDEUVRE SUR BARSE
0.1019;43.9435;32079;32440;CASTELNAU D AUZAN LABARRERE
3.0498;43.6671;34260;34610;ST GERVAIS SUR MARE
0.6267;42.7361;31042;31110;BAGNERES DE LUCHON
0.6267;42.7361;31042;31110;BAGNERES DE LUCHON
4.9324;48.0292;52114;52120;CHATEAUVILLAIN
4.9324;48.0292;52114;52120;CHATEAUVILLAIN
4.9324;48.0292;52114;52120;CHATEAUVILLAIN
4.9324;48.0292;52114;52120;CHATEAUVILLAIN
3.0643;45.7386;63070;63122;CEYRAT
3.0643;45.7386;63070;63122;CEYRAT
2.8769;42.7786;66164;66600;RIVESALTES
5.6014;48.2051;52064;52150;BOURMONT
5.6014;48.2051;52064;52150;BOURMONT
1.477;46.0553;87181;87370;ST SULPICE LAURIERE
1.3966;45.8977;87178;87480;ST PRIEST TAURION
4.077;46.2165;71238;71340;IGUERANDE
1.5325;46.127;23192;23290;ST ETIENNE DE FURSAC
4.3417;46.2066;71120;71170;CHAUFFAILLES
3.8203;44.5519;48040;48250;CHASSERADES
3.2643;49.1629;02543;02470;NEUILLY ST FRONT
1.3853;48.1812;28051;28800;BONNEVAL
1.9892;43.6351;81266;81220;ST PAUL CAP DE JOUX
-2.052;47.1224;44131;44210;PORNIC
-2.052;47.1224;44131;44210;PORNIC
-2.052;47.1224;44131;44210;PORNIC
0.7907;47.2933;37104;37320;ESVRES
3.8133;47.4102;89145;89450;DOMECY SUR CURE
6.3004;43.3206;83067;83590;GONFARON
1.9218;49.447;60333;60650;LACHAPELLE AUX POTS
3.7064;43.5694;34088;34660;COURNONTERRAL
1.1145;43.4122;31454;31370;RIEUMES
6.7664;45.6647;73054;73700;BOURG ST MAURICE
6.7664;45.6647;73054;73700;BOURG ST MAURICE
6.7664;45.6647;73054;73700;BOURG ST MAURICE
-0.7934;46.4563;85092;85200;FONTENAY LE COMTE
-0.7934;46.4563;85092;85200;FONTENAY LE COMTE
8.952;42.1241;2A259;20121;REZZA
9.3303;41.7531;2A092;20135;CONCA
-0.1265;42.8522;65138;65110;CAUTERETS
2.3443;48.5145;91315;91760;ITTEVILLE
3.3497;47.512;89158;89480;ETAIS LA SAUVIN
-3.8233;48.2558;29175;29530;PLONEVEZ DU FAOU
-4.6695;48.538;29178;29830;PLOUDALMEZEAU
-4.6695;48.538;29178;29830;PLOUDALMEZEAU
6.5141;48.1133;88011;88380;ARCHES
-2.3621;48.6348;22179;22240;FREHEL
-2.3621;48.6348;22179;22240;FREHEL
-2.3621;48.6348;22179;22240;FREHEL
0.9733;45.7681;87158;87310;ST LAURENT SUR GORRE
-1.123;45.7467;17021;17530;ARVERT
5.9545;48.2013;88516;88800;VITTEL
7.1528;43.6715;06027;06800;CAGNES SUR MER
7.1528;43.6715;06027;06800;CAGNES SUR MER
-0.9405;43.798;40230;40465;PONTONX SUR L ADOUR
1.782;43.8975;81145;81310;LISLE SUR TARN
2.3809;44.6739;15029;15340;CASSANIOUZE
2.6141;48.7871;77373;77340;PONTAULT COMBAULT
2.6141;48.7871;77373;77340;PONTAULT COMBAULT
0.2007;48.9245;61508;61120;VIMOUTIERS
6.1955;49.1081;57463;57050;METZ
6.1955;49.1081;57463;57070;METZ
6.1955;49.1081;57463;57000;METZ
7.6852;48.4214;67130;67150;ERSTEIN
7.6852;48.4214;67130;67150;ERSTEIN
-0.6256;46.0667;17043;17330;BERNAY ST MARTIN
-0.6256;46.0667;17043;17330;BERNAY ST MARTIN
3.631;45.7366;63016;63930;AUGEROLLES
-0.3601;44.48;33307;33730;NOAILLAN
-1.3245;45.9763;17337;17190;ST GEORGES D OLERON
-1.3245;45.9763;17337;17190;ST GEORGES D OLERON
-1.3245;45.9763;17337;17190;ST GEORGES D OLERON
-1.3245;45.9763;17337;17190;ST GEORGES D OLERON
-1.3245;45.9763;17337;17190;ST GEORGES D OLERON
-1.3245;45.9763;17337;17190;ST GEORGES D OLERON
6.5769;43.4687;83086;83490;LE MUY
5.3725;49.5154;55351;55600;MONTMEDY
5.3701;47.2726;21337;21760;LAMARCHE SUR SAONE
4.1552;44.3324;07280;07460;ST PAUL LE JEUNE
4.9932;43.9282;84132;84250;LE THOR
-3.0456;48.7152;22390;22930;YVIAS
5.2345;44.1375;84017;84410;BEDOIN
-3.4617;48.7433;22113;22300;LANNION
-3.4617;48.7433;22113;22300;LANNION
5.0139;43.5842;13063;13140;MIRAMAS
-3.4106;48.2883;22137;22340;MAEL CARHAIX
-3.5878;48.5315;29067;29650;GUERLESQUIN
2.4933;49.2882;60684;60870;VILLERS ST PAUL
1.3599;44.8869;24081;24370;CARLUX
4.1306;44.1417;30294;30340;ST PRIVAT DES VIEUX
3.9547;43.9374;30311;30610;SAUVE
0.7476;47.9251;72269;72120;ST CALAIS
6.7009;44.6681;05065;05600;GUILLESTRE
2.5386;50.7263;59295;59190;HAZEBROUCK
-1.2615;47.1715;44212;44330;VALLET
4.2285;47.8724;89131;89740;CRUZY LE CHATEL
-0.8124;49.0964;14143;14240;CAUMONT L EVENTE
-2.4647;47.4727;56155;56760;PENESTIN
9.2103;42.0909;2B124;20227;GHISONI
5.9242;47.2782;25448;25170;PELOUSEY
2.357;47.1109;18205;18230;ST DOULCHARD
5.8755;46.4086;39478;39200;ST CLAUDE
5.8755;46.4086;39478;39200;ST CLAUDE
5.8755;46.4086;39478;39200;ST CLAUDE
5.8755;46.4086;39478;39200;ST CLAUDE
5.8755;46.4086;39478;39200;ST CLAUDE
5.8755;46.4086;39478;39200;ST CLAUDE
6.3807;46.3247;74263;74140;SCIEZ
0.8855;48.2017;28018;28330;AUTHON DU PERCHE
-0.3893;48.152;53097;53600;EVRON
4.2255;46.0329;42145;42840;MONTAGNY
3.8916;46.106;42003;42820;AMBIERLE
4.0291;49.689;02502;02340;MONTCORNET
-1.0034;48.3492;53126;53220;LARCHAMP
-2.4954;48.4684;22093;22400;LAMBALLE
-2.4954;48.4684;22093;22400;LAMBALLE
-2.4954;48.4684;22093;22400;LAMBALLE
-2.4954;48.4684;22093;22400;LAMBALLE
-2.4954;48.4684;22093;22400;LAMBALLE
-2.4954;48.4684;22093;22400;LAMBALLE
7.3773;48.9746;57250;57620;GOETZENBRUCK
7.3773;48.9746;57250;57620;GOETZENBRUCK
1.8757;50.9502;62193;62100;CALAIS
1.4692;45.2556;19005;19240;ALLASSAC
1.5127;45.1902;19274;19270;USSAC
1.6437;42.9378;09207;09330;MONTGAILLARD
6.4669;43.3234;83063;83680;LA GARDE FREINET
5.8265;48.3093;88095;88170;CHATENOIS
5.8265;48.3093;88095;88170;CHATENOIS
6.7203;45.3498;73206;73710;PRALOGNAN LA VANOISE
6.412;44.8308;05175;05290;VALLOUISE
4.6635;46.6134;71417;71460;ST GENGOUX LE NATIONAL
-1.3255;43.9396;40326;40560;VIELLE ST GIRONS
-1.3255;43.9396;40326;40560;VIELLE ST GIRONS
-1.3255;43.9396;40326;40560;VIELLE ST GIRONS
3.6349;45.6904;63258;63880;OLLIERGUES
1.6798;43.9201;81276;81630;SALVAGNAC
2.1659;45.9509;23008;23200;AUBUSSON
7.86;48.7581;67046;67240;BISCHWILLER
9.1206;41.5163;2A114;20114;FIGARI
9.0312;41.6987;2A146;20165;LORETO DI TALLANO
4.3106;46.9455;71014;71400;AUTUN
4.3106;46.9455;71014;71400;AUTUN
4.3013;44.5338;07132;07110;LARGENTIERE
0.5752;43.6534;32013;32000;AUCH
2.1293;43.7052;81139;81440;LAUTREC
6.4903;43.845;04039;04120;CASTELLANE
6.4903;43.845;04039;04120;CASTELLANE
6.4903;43.845;04039;04120;CASTELLANE
6.4903;43.845;04039;04120;CASTELLANE
6.4903;43.845;04039;04120;CASTELLANE
6.4903;43.845;04039;04120;CASTELLANE
1.5693;46.4342;36070;36270;EGUZON CHANTOME
1.5693;46.4342;36070;36270;EGUZON CHANTOME
4.3314;45.4557;42223;42530;ST GENEST LERPT
5.9924;44.0855;04049;04600;CHATEAU ARNOUX ST AUBAN
5.9924;44.0855;04049;04160;CHATEAU ARNOUX ST AUBAN
-0.0766;44.7005;33506;33540;SAUVETERRE DE GUYENNE
-1.8308;47.6279;44067;44290;GUEMENE PENFAO
-1.8308;47.6279;44067;44290;GUEMENE PENFAO
-1.8308;47.6279;44067;44290;GUEMENE PENFAO
-1.5828;47.8184;35106;35620;ERCE EN LAMEE
3.3094;43.5109;34237;34320;ROUJAN
-0.0287;43.9252;32096;32150;CAZAUBON
-0.0287;43.9252;32096;32150;CAZAUBON
0.4555;46.8409;86272;86540;THURE
-0.0811;46.1152;79083;79110;CHEF BOUTONNE
1.1857;45.675;87106;87800;NEXON
3.3384;45.921;63210;63350;MARINGUES
3.8451;50.2318;59467;59138;PONT SUR SAMBRE
5.7777;48.0624;88258;88320;LAMARCHE
6.0663;47.8753;70415;70210;POLAINCOURT ET CLAIREFONTAINE
6.4291;47.5591;70561;70110;VILLERSEXEL
0.6347;42.9127;31144;31440;CIERP GAUD
0.6347;42.9127;31144;31440;CIERP GAUD
4.4416;46.2368;69209;69790;ST IGNY DE VERS
6.7402;45.8572;74236;74170;ST GERVAIS LES BAINS
6.7402;45.8572;74236;74170;ST GERVAIS LES BAINS
6.7402;45.8572;74236;74170;ST GERVAIS LES BAINS
-4.1591;48.0728;29169;29180;PLOGONNEC
0.7221;47.8243;72035;72310;BESSE SUR BRAYE
3.9023;43.5639;34129;34970;LATTES
5.2044;48.3149;52177;52270;DOULAINCOURT SAUCOURT
5.2044;48.3149;52177;52270;DOULAINCOURT SAUCOURT
2.027;42.5132;66124;66120;FONT ROMEU ODEILLO VIA
2.027;42.5132;66124;66120;FONT ROMEU ODEILLO VIA
-0.4197;42.8923;64320;64440;LARUNS
-0.4197;42.8923;64320;64440;LARUNS
-0.4197;42.8923;64320;64440;LARUNS
2.0709;44.8009;46160;46210;LATRONQUIERE
0.2838;42.8993;65006;65440;ANCIZAN
1.5965;42.8462;09306;09400;TARASCON SUR ARIEGE
1.5965;42.8462;09306;09400;TARASCON SUR ARIEGE
6.9407;48.1848;88009;88650;ANOULD
0.3649;45.6454;16093;16380;CHAZELLES
7.1558;48.6016;57003;57560;ABRESCHVILLER
-0.1046;43.4517;64331;64350;LEMBEYE
0.416;46.5484;86157;86550;MIGNALOUX BEAUVOIR
2.3225;43.8924;81317;81430;VILLEFRANCHE D ALBIGEOIS
0.7897;46.2646;86001;86430;ADRIERS
5.3289;43.5711;13032;13510;EGUILLES
5.0681;43.6463;13103;13300;SALON DE PROVENCE
1.7182;49.4798;76312;76220;GOURNAY EN BRAY
1.9451;49.9721;80013;80270;AIRAINES
1.9451;49.9721;80013;80270;AIRAINES
5.9199;49.2141;54542;54910;VALLEROY
0.5143;44.2941;47213;47360;PRAYSSAS
3.8326;50.2059;59033;59620;AULNOYE AYMERIES
5.0396;43.9961;84088;84210;PERNES LES FONTAINES
-2.6873;48.0699;56024;56580;BREHAN
2.7496;48.8683;77307;77144;MONTEVRAIN
5.8572;43.2776;83127;83870;SIGNES
5.8202;43.2069;83016;83330;LE BEAUSSET
4.0882;44.125;30007;30100;ALES
9.071;42.0887;2A040;20136;BOCOGNANO
9.405;42.1965;2B201;20251;PANCHERACCIA
-2.1465;47.8204;56033;56910;CARENTOIR
4.2416;45.8875;42249;42540;ST JUST LA PENDUE
2.7076;45.5442;63192;63680;LA TOUR D AUVERGNE
2.534;45.6123;63225;63750;MESSEIX
2.534;45.6123;63225;63750;MESSEIX
2.534;45.6123;63225;63750;MESSEIX
0.338;42.9143;65031;65240;ARREAU
-1.0014;43.6066;40233;40350;POUILLON
3.8839;47.961;89169;89360;FLOGNY LA CHAPELLE
-1.5074;46.9928;85262;85660;ST PHILBERT DE BOUAINE
5.7732;46.8942;39013;39600;ARBOIS
4.7134;46.713;71070;71390;BUXY
3.6895;47.2566;58083;58800;CORBIGNY
4.1734;47.2097;58003;58230;ALLIGNY EN MORVAN
5.5918;49.4584;54322;54260;LONGUYON
5.5918;49.4584;54322;54260;LONGUYON
5.5918;49.4584;54322;54260;LONGUYON
-0.5096;48.7952;61007;61430;ATHIS VAL DE ROUVRE
-1.3749;48.8097;50237;50320;LA HAYE PESNEL
-1.4635;48.754;50565;50530;SARTILLY BAIE BOCAGE
-1.4635;48.754;50565;50530;SARTILLY BAIE BOCAGE
-1.4635;48.754;50565;50530;SARTILLY BAIE BOCAGE
-1.4635;48.754;50565;50530;SARTILLY BAIE BOCAGE
-1.4635;48.754;50565;50530;SARTILLY BAIE BOCAGE
-2.0709;48.5279;22190;22490;PLESLIN TRIGAVOU
-2.0709;48.5279;22190;22490;PLESLIN TRIGAVOU
2.1607;50.8184;62297;62910;EPERLECQUES
-1.7482;48.0262;35047;35170;BRUZ
-1.7482;48.0262;35047;35170;BRUZ
2.5912;43.2684;11315;11160;RIEUX MINERVOIS
2.4595;43.2055;11397;11800;TREBES
2.0364;43.9103;81156;81150;MARSSAC SUR TARN
-0.5641;44.126;40135;40420;LABRIT
4.2848;45.3102;43177;43140;ST DIDIER EN VELAY
4.7526;43.9467;30011;30133;LES ANGLES
3.5738;43.6394;34114;34150;GIGNAC
3.9067;49.254;51282;51390;GUEUX
5.0879;46.9957;21332;21820;LABERGEMENT LES SEURRE
6.5276;48.775;57712;57630;VIC SUR SEILLE
9.2331;41.6806;2A300;20170;SAN GAVINO DI CARBINI
9.0119;41.5249;2A163;20171;MONACIA D AULLENE
5.3242;46.5937;71379;71580;SAGY
5.7419;47.9441;52060;52400;BOURBONNE LES BAINS
5.7419;47.9441;52060;52400;BOURBONNE LES BAINS
5.7419;47.9441;52060;52400;BOURBONNE LES BAINS
5.9639;47.6798;70482;70360;SCEY SUR SAONE ET ST ALBIN
0.8715;43.2137;31028;31420;AURIGNAC
2.4528;51.0159;59588;59229;TETEGHEM COUDEKERQUE VILLAGE
2.4528;51.0159;59588;59380;TETEGHEM COUDEKERQUE VILLAGE
4.2475;44.4705;07110;07260;JOYEUSE
7.3242;43.8093;06048;06390;CONTES
7.2726;43.7861;06147;06690;TOURRETTE LEVENS
9.041;41.7316;2A066;20164;CARGIACA
-1.1086;49.2258;50468;50620;ST FROMOND
1.1533;42.9753;09261;09200;ST GIRONS
5.0604;44.2477;84137;84110;VAISON LA ROMAINE
2.5113;43.6117;81037;81260;BRASSAC
0.6014;47.3368;37018;37510;BALLAN MIRE
3.4174;50.2076;59528;59188;ST AUBERT
-3.1476;47.8366;56101;56440;LANGUIDIC
4.3484;44.3122;30029;30430;BARJAC
-0.6127;45.005;33262;33460;MACAU
2.104;47.9653;45327;45470;TRAINOU
-2.0484;46.8022;85234;85160;ST JEAN DE MONTS
3.3853;45.2965;43040;43100;BRIOUDE
4.3739;45.6293;42059;42140;CHAZELLES SUR LYON
5.7647;45.702;73330;73170;YENNE
-1.2574;45.9097;17140;17550;DOLUS D OLERON
6.6184;45.5526;73006;73210;AIME LA PLAGNE
6.6184;45.5526;73006;73210;AIME LA PLAGNE
6.6184;45.5526;73006;73210;AIME LA PLAGNE
6.6184;45.5526;73006;73210;AIME LA PLAGNE
6.6184;45.5526;73006;73210;AIME LA PLAGNE
6.6184;45.5526;73006;73210;AIME LA PLAGNE
6.2884;45.9924;74282;74570;THORENS GLIERES
-1.0179;45.6347;17306;17200;ROYAN
5.4587;44.6108;26167;26310;LUC EN DIOIS
-0.6165;47.5412;49214;49460;MONTREUIL JUIGNE
-0.6165;47.5412;49214;49460;MONTREUIL JUIGNE
4.4394;44.209;30131;30630;GOUDARGUES
4.8246;44.9411;07281;07130;ST PERAY
0.9473;49.5759;76495;76570;PAVILLY
-1.1937;48.1141;35360;35500;VITRE
4.5197;47.6871;21685;21450;VILLAINES EN DUESMOIS
-0.5582;44.7732;33550;33140;VILLENAVE D ORNON
-0.5582;44.7732;33550;33140;VILLENAVE D ORNON
0.6277;43.7936;32286;32390;MONTESTRUC SUR GERS
7.1728;48.4602;67066;67130;LA BROQUE
7.1728;48.4602;67066;67130;LA BROQUE
7.1728;48.4602;67066;67130;LA BROQUE
7.1728;48.4602;67066;67570;LA BROQUE
7.1728;48.4602;67066;67570;LA BROQUE
3.9796;48.9082;51612;51130;VERTUS
1.2215;47.9935;28103;28220;CLOYES SUR LE LOIR
0.366;43.3175;65452;65220;TRIE SUR BAISE
-1.3703;46.9166;85108;85260;L HERBERGEMENT
5.8524;46.2865;39413;39370;LA PESSE
5.8649;43.7676;04094;04800;GREOUX LES BAINS
7.1019;43.7385;06157;06140;VENCE
6.6894;47.0703;25321;25130;VILLERS LE LAC
-1.0588;47.9041;53018;53350;BALLOTS
-3.8123;48.6776;29188;29630;PLOUGASNOU
-3.8123;48.6776;29188;29630;PLOUGASNOU
6.0465;46.3472;01173;01170;GEX
-2.7665;48.3441;22203;22150;PLOEUC L HERMITAGE
-2.7665;48.3441;22203;22150;PLOEUC L HERMITAGE
0.5671;44.2323;47069;47450;COLAYRAC ST CIRQ
4.0402;49.2515;51454;51100;REIMS
4.0402;49.2515;51454;51100;REIMS
2.1731;44.7119;15122;15600;MAURS
6.8123;46.0542;74273;74740;SIXT FER A CHEVAL
6.0524;48.7537;54318;54460;LIVERDUN
7.4692;48.8859;67222;67340;INGWILLER
4.089;44.7681;07224;07510;ST CIRGUES EN MONTAGNE
4.0036;44.9894;43113;43260;LANTRIAC
6.5506;43.5078;83085;83920;LA MOTTE
3.1588;50.7254;59599;59200;TOURCOING
2.5462;48.9076;93014;93390;CLICHY SOUS BOIS
4.8407;43.9352;84007;84000;AVIGNON
4.8407;43.9352;84007;84140;AVIGNON
4.4642;43.504;13096;13460;SAINTES MARIES DE LA MER
0.8024;46.7755;86207;86270;LA ROCHE POSAY
-3.3022;48.816;22166;22710;PENVENAN
-3.3022;48.816;22166;22710;PENVENAN
-3.3022;48.816;22166;22710;PENVENAN
-3.4914;48.5106;22131;22780;LOGUIVY PLOUGRAS
1.4737;44.2399;82131;82270;MONTPEZAT DE QUERCY
6.4255;48.2002;88209;88190;GOLBEY
5.7479;43.1473;83009;83150;BANDOL
3.763;45.6284;63179;63990;JOB
2.9228;45.5865;63247;63790;MUROL
2.45;45.3433;15265;15210;YDES
5.9438;49.3226;54533;54750;TRIEUX
3.069;44.1614;12002;12520;AGUESSAC
2.4499;46.5074;03225;03370;ST DESIRE
7.2867;48.2065;68269;68150;RIBEAUVILLE
2.0861;49.4366;60057;60000;BEAUVAIS
1.9161;47.8828;45234;45000;ORLEANS
1.9161;47.8828;45234;45100;ORLEANS
1.9161;47.8828;45234;45100;ORLEANS
2.3833;49.8417;80131;80440;BOVES
3.1182;50.7473;59508;59223;RONCQ
8.7324;42.3068;2A279;20147;SERRIERA
-3.3755;48.1344;56170;56770;PLOURAY
6.8171;46.249;74063;74390;CHATEL
7.0011;49.1805;57013;57515;ALSTING
5.4149;49.3434;55145;55150;DAMVILLERS
-1.2053;48.9175;50393;50410;PERCY EN NORMANDIE
-1.2053;48.9175;50393;50410;PERCY EN NORMANDIE
-1.8304;48.3232;35337;35190;TINTENIAC
7.4151;48.2953;67445;67750;SCHERWILLER
7.4151;48.2953;67445;67750;SCHERWILLER
-0.207;47.4364;49021;49250;BEAUFORT EN ANJOU
-0.207;47.4364;49021;49250;BEAUFORT EN ANJOU
6.1779;48.5334;54109;54134;CEINTREY
-1.6819;48.112;35238;35700;RENNES
-1.6819;48.112;35238;35000;RENNES
-1.6819;48.112;35238;35200;RENNES
1.8567;47.1408;18103;18310;GRACAY
1.5653;45.4239;19276;19140;UZERCHE
5.6496;44.0269;04018;04150;BANON
-1.305;45.9396;17385;17310;ST PIERRE D OLERON
-1.305;45.9396;17385;17310;ST PIERRE D OLERON
4.5789;45.4706;42271;42740;ST PAUL EN JAREZ
2.1718;49.126;95446;95690;NESLES LA VALLEE
3.1137;47.38;58102;58220;DONZY
-0.4936;48.9026;14162;14570;CLECY
2.034;49.0114;95323;95280;JOUY LE MOUTIER
2.034;49.0114;95323;95280;JOUY LE MOUTIER
2.034;49.0114;95323;95280;JOUY LE MOUTIER
6.2878;44.5455;05040;05230;CHORGES
3.4845;43.3091;34003;34300;AGDE
3.4845;43.3091;34003;34300;AGDE
-0.977;44.7745;33229;33138;LANTON
-0.977;44.7745;33229;33138;LANTON
1.2867;43.8224;82075;82170;GRISOLLES
-1.7998;47.805;35176;35480;GUIPRY MESSAC
-1.7998;47.805;35176;35480;GUIPRY MESSAC
5.5763;45.9696;01185;01110;HAUTEVILLE LOMPNES
2.3451;48.9573;93079;93430;VILLETANEUSE
-0.3424;43.415;64415;64450;NAVAILLES ANGOS
2.6796;45.662;63370;63820;ST JULIEN PUY LAVEZE
3.4544;45.4784;63448;63580;VERNET LA VARENNE
6.9416;44.8163;05001;05460;ABRIES
1.2035;44.7868;24091;24250;CENAC ET ST JULIEN
3.9159;47.4825;89025;89200;AVALLON
-0.5923;43.8766;40280;40090;ST PERDON
-0.2304;43.998;40267;40240;ST JUSTIN
2.8606;45.1111;15138;15300;MURAT
5.6776;43.5186;13079;13114;PUYLOUBIER
5.6776;43.5186;13079;13114;PUYLOUBIER
6.9061;43.9522;06099;06260;PUGET THENIERS
3.1734;50.5328;59586;59242;TEMPLEUVE EN PEVELE
4.7867;48.4875;52331;52220;LA PORTE DU DER
4.7867;48.4875;52331;52220;LA PORTE DU DER
0.497;45.2373;24553;24350;TOCANE ST APRE
-1.9259;47.0381;44021;44580;VILLENEUVE EN RETZ
-1.9259;47.0381;44021;44580;VILLENEUVE EN RETZ
-1.9259;47.0381;44021;44580;VILLENEUVE EN RETZ
3.2174;43.4809;34147;34480;MAGALAS
0.8428;45.8236;87126;87600;ROCHECHOUART
1.3236;45.8407;87114;87350;PANAZOL
6.2245;48.5246;54062;54740;BENNEY
-0.5697;45.4803;17331;17240;ST GENIS DE SAINTONGE
3.8904;44.343;48194;48220;VIALAS
2.5138;51.0486;59260;59254;GHYVELDE
7.276;48.2678;68185;68660;LIEPVRE
-0.2129;43.6933;32027;32720;BARCELONNE DU GERS
-0.2652;43.6983;40001;40800;AIRE SUR L ADOUR
1.42;48.7951;28001;28410;ABONDANT
1.749;45.9488;23030;23400;BOURGANEUF
8.7071;42.4082;2B121;20245;GALERIA
2.0005;46.9489;36088;36100;ISSOUDUN
7.0803;47.8518;68372;68760;WILLER SUR THUR
2.4649;48.4033;91405;91490;MILLY LA FORET
-0.4438;47.79;53210;53290;ST DENIS D ANJOU
-0.5392;48.7141;61278;61440;MESSEI
6.8124;47.3121;25519;25190;ST HIPPOLYTE
6.8124;47.3121;25519;25190;ST HIPPOLYTE
2.7111;48.2596;77333;77140;NEMOURS
-0.7927;48.1771;53005;53240;ANDOUILLE
-0.1359;46.833;79005;79600;AIRVAULT
-0.1359;46.833;79005;79600;AIRVAULT
-0.1359;46.833;79005;79600;AIRVAULT
1.1001;46.6346;36018;36300;LE BLANC
-2.0998;46.8723;85012;85550;LA BARRE DE MONTS
-2.0998;46.8723;85012;85550;LA BARRE DE MONTS
1.4362;47.4211;41059;41700;CONTRES
7.3395;43.7433;06149;06340;LA TRINITE
3.5476;45.3048;43178;43440;ST DIDIER SUR DOULON
5.0149;43.4554;13098;13920;ST MITRE LES REMPARTS
3.3863;45.8288;63195;63190;LEZOUX
4.9018;44.4369;26146;26230;GRIGNAN
3.9621;44.2998;30080;30530;CHAMBORIGAUD
5.7849;43.379;83087;83860;NANS LES PINS
-0.1967;48.447;53185;53140;PRE EN PAIL ST SAMSON
-0.1967;48.447;53185;53140;PRE EN PAIL ST SAMSON
5.0668;46.4613;01388;01560;ST TRIVIER DE COURTES
-1.324;49.5884;50417;50630;QUETTEHOU
-2.8085;48.4877;22215;22440;PLOUFRAGAN
-2.8085;48.4877;22215;22440;PLOUFRAGAN
-4.1801;48.6657;29185;29430;PLOUESCAT
1.2119;44.3355;46201;46800;MONTCUQ EN QUERCY BLANC
1.2119;44.3355;46201;46800;MONTCUQ EN QUERCY BLANC
1.2119;44.3355;46201;46800;MONTCUQ EN QUERCY BLANC
1.2119;44.3355;46201;46800;MONTCUQ EN QUERCY BLANC
1.2119;44.3355;46201;46800;MONTCUQ EN QUERCY BLANC
3.1972;47.0137;58088;58660;COULANGES LES NEVERS
-1.1367;48.9941;50363;50860;MOYON VILLAGES
-1.1367;48.9941;50363;50860;MOYON VILLAGES
-4.6235;48.4258;29260;29290;ST RENAN
2.4817;48.8367;94052;94130;NOGENT SUR MARNE
1.3595;44.9451;24516;24590;SALIGNAC EYVIGUES
5.9366;43.528;83025;83119;BRUE AURIAC
3.0826;43.1041;11170;11430;GRUISSAN
3.0826;43.1041;11170;11430;GRUISSAN
6.0988;44.6973;05132;05500;ST BONNET EN CHAMPSAUR
6.0988;44.6973;05132;05500;ST BONNET EN CHAMPSAUR
6.0988;44.6973;05132;05500;ST BONNET EN CHAMPSAUR
-1.4738;49.5128;50615;50700;VALOGNES
2.347;49.7467;80010;80250;AILLY SUR NOYE
4.9386;47.1465;21464;21700;NUITS ST GEORGES
-1.3813;47.4008;44082;44850;LIGNE
1.5977;49.1515;27213;27510;VEXIN SUR EPTE
1.5977;49.1515;27213;27510;VEXIN SUR EPTE
1.5977;49.1515;27213;27510;VEXIN SUR EPTE
1.5977;49.1515;27213;27510;VEXIN SUR EPTE
1.5977;49.1515;27213;27510;VEXIN SUR EPTE
1.5977;49.1515;27213;27630;VEXIN SUR EPTE
1.5977;49.1515;27213;27630;VEXIN SUR EPTE
1.5977;49.1515;27213;27630;VEXIN SUR EPTE
1.5977;49.1515;27213;27630;VEXIN SUR EPTE
1.5977;49.1515;27213;27630;VEXIN SUR EPTE
1.5977;49.1515;27213;27630;VEXIN SUR EPTE
1.5977;49.1515;27213;27630;VEXIN SUR EPTE
1.5977;49.1515;27213;27420;VEXIN SUR EPTE
1.5977;49.1515;27213;27420;VEXIN SUR EPTE
-4.3832;48.3601;29189;29470;PLOUGASTEL DAOULAS
-2.4367;47.6638;56184;56230;QUESTEMBERT
5.9365;47.2602;25467;25115;POUILLEY LES VIGNES
5.7548;46.5647;39154;39130;CLAIRVAUX LES LACS
6.3039;46.1974;74094;74380;CRANVES SALES
6.7322;46.2661;74001;74360;ABONDANCE
6.1141;45.3799;38006;38580;ALLEVARD
-1.1152;48.7494;50499;50670;ST LAURENT DE CUVES
-1.5142;48.2041;35152;35340;LIFFRE
0.5999;44.4059;47252;47110;STE LIVRADE SUR LOT
1.2143;43.3574;31303;31410;LONGAGES
-4.3279;48.0807;29046;29100;DOUARNENEZ
-4.3279;48.0807;29046;29100;DOUARNENEZ
2.4301;47.5626;18011;18410;ARGENT SUR SAULDRE
5.6769;45.0909;38524;38760;VARCES ALLIERES ET RISSET
-0.0494;46.5738;79339;79340;VASLES
-0.1086;48.3981;53246;53370;ST PIERRE DES NIDS
7.6752;48.9375;67388;67110;REICHSHOFFEN
7.6752;48.9375;67388;67110;REICHSHOFFEN
-0.0428;43.1786;65344;65380;OSSUN
2.7643;44.5189;12096;12500;ESPALION
2.5848;44.5664;12049;12580;CAMPUAC
5.0815;46.5143;71373;71470;ROMENAY
6.7244;48.0181;88486;88120;VAGNEY
4.9311;44.5523;26045;26160;LA BEGUDE DE MAZENC
0.9663;45.0511;24356;24580;ROUFFIGNAC ST CERNIN DE REILHAC
0.9663;45.0511;24356;24580;ROUFFIGNAC ST CERNIN DE REILHAC
6.1224;45.0782;38173;38142;LE FRENEY D OISANS
5.0817;47.6943;52094;52160;VALS DES TILLES
5.0817;47.6943;52094;52160;VALS DES TILLES
5.0817;47.6943;52094;52160;VALS DES TILLES
5.0817;47.6943;52094;52160;VALS DES TILLES
5.0817;47.6943;52094;52160;VALS DES TILLES
5.0817;47.6943;52094;52160;VALS DES TILLES
4.003;45.131;43165;43800;ROSIERES
3.6929;45.3187;43048;43160;LA CHAISE DIEU
3.8107;44.9222;43042;43510;CAYRES
-2.2641;46.9844;85083;85740;L EPINE
2.1446;49.7503;80211;80160;CONTY
2.1446;49.7503;80211;80160;CONTY
8.8988;41.7923;2A232;20123;PILA CANALE
1.0254;44.8826;24396;24220;ST CYPRIEN
0.8105;44.9472;24362;24510;STE ALVERE ST LAURENT LES BATONS
0.8105;44.9472;24362;24510;STE ALVERE ST LAURENT LES BATONS
0.7579;48.5294;61230;61290;LONGNY LES VILLAGES
0.7579;48.5294;61230;61290;LONGNY LES VILLAGES
0.7579;48.5294;61230;61290;LONGNY LES VILLAGES
0.7579;48.5294;61230;61290;LONGNY LES VILLAGES
0.7579;48.5294;61230;61290;LONGNY LES VILLAGES
0.7579;48.5294;61230;61290;LONGNY LES VILLAGES
0.7579;48.5294;61230;61290;LONGNY LES VILLAGES
0.7579;48.5294;61230;61290;LONGNY LES VILLAGES
1.7867;45.2403;19101;19150;LAGUENNE
6.1608;45.9193;74011;74940;ANNECY LE VIEUX
-0.309;46.3657;79048;79260;LA CRECHE
-1.2457;44.189;40184;40200;MIMIZAN
3.4652;49.989;02095;02110;BOHAIN EN VERMANDOIS
4.1313;49.7064;02666;02360;ROZOY SUR SERRE
0.7862;47.4985;37153;37380;MONNAIE
4.8184;46.3206;71270;71000;MACON
4.8184;46.3206;71270;71000;MACON
4.8184;46.3206;71270;71000;MACON
4.8184;46.3206;71270;71000;MACON
4.8184;46.3206;71270;71000;MACON
4.6438;45.7319;69255;69670;VAUGNERAY
4.6438;45.7319;69255;69670;VAUGNERAY
4.7544;46.7702;71221;71640;GIVRY
-1.3056;48.0108;35014;35680;BAIS
-0.8306;48.6084;50029;50720;BARENTON
6.0284;43.0992;83098;83220;LE PRADET
7.0253;47.9979;68204;68380;METZERAL
2.7954;48.3812;77491;77250;VENEUX LES SABLONS
4.8119;47.4149;21561;21440;ST MARTIN DU MONT
2.0791;47.2369;18279;18100;VIERZON
-1.2483;44.0911;40266;40170;ST JULIEN EN BORN
-0.2302;47.9808;72050;72350;BRULON
2.38;48.614;91086;91070;BONDOUFLE
-2.0569;47.6362;44185;44460;ST NICOLAS DE REDON
1.9598;47.8141;45272;45590;ST CYR EN VAL
6.2771;47.6947;70478;70240;SAULX
7.5406;47.6017;68297;68300;ST LOUIS
7.5406;47.6017;68297;68300;ST LOUIS
7.5406;47.6017;68297;68300;ST LOUIS
0.3485;48.6253;61133;61390;COURTOMER
1.162;46.5556;36016;36370;BELABRE
-0.1193;46.3521;79184;79800;LA MOTHE ST HERAY
0.5339;49.3464;27467;27500;PONT AUDEMER
0.5339;49.3464;27467;27500;PONT AUDEMER
-0.2424;45.977;17257;17510;NERE
2.953;45.2313;15001;15160;ALLANCHE
9.4099;42.8934;2B152;20228;LURI
9.4099;42.8934;2B152;20228;LURI
4.9512;43.5503;13047;13118;ISTRES
4.9512;43.5503;13047;13800;ISTRES
5.0494;43.3799;13056;13117;MARTIGUES
5.0494;43.3799;13056;13500;MARTIGUES
5.0494;43.3799;13056;13500;MARTIGUES
5.0494;43.3799;13056;13500;MARTIGUES
5.0494;43.3799;13056;13500;MARTIGUES
5.4796;43.4526;13041;13120;GARDANNE
5.4796;43.4526;13041;13120;GARDANNE
5.4796;43.4526;13041;13120;GARDANNE
3.008;49.5774;60471;60400;NOYON
4.1179;49.9949;59012;59186;ANOR
4.3835;49.5132;08362;08300;RETHEL
4.3835;49.5132;08362;08300;RETHEL
6.306;43.3805;83073;83340;LE LUC
3.5125;49.6083;02238;02870;CREPY
4.8351;50.1425;08190;08600;GIVET
-3.5065;48.8174;22353;22730;TREGASTEL
-3.4676;48.8095;22168;22700;PERROS GUIREC
-3.4676;48.8095;22168;22700;PERROS GUIREC
-3.4676;48.8095;22168;22700;PERROS GUIREC
2.3592;48.9296;93066;93200;ST DENIS
2.3592;48.9296;93066;93210;ST DENIS
-0.3428;46.6573;79239;79450;ST AUBIN LE CLOUD
2.1279;48.6988;91272;91190;GIF SUR YVETTE
1.7431;42.72;09176;09250;LUZENAC
6.745;43.865;06024;06850;BRIANCONNET
5.9265;43.0755;83153;83430;ST MANDRIER SUR MER
9.4956;42.1059;2B009;20270;ALERIA
9.4956;42.1059;2B009;20270;ALERIA
-3.1625;47.672;56013;56550;BELZ
8.9218;42.0611;2A345;20172;VERO
2.5497;45.4344;15092;15270;LANOBRE
2.5497;45.4344;15092;15270;LANOBRE
2.6273;45.5635;63426;63690;TAUVES
4.3232;46.0488;69248;69240;THIZY LES BOURGS
4.3232;46.0488;69248;69240;THIZY LES BOURGS
4.3232;46.0488;69248;69240;THIZY LES BOURGS
4.3232;46.0488;69248;69240;THIZY LES BOURGS
4.3232;46.0488;69248;69240;THIZY LES BOURGS
5.7237;48.9857;55551;55210;VIGNEULLES LES HATTONCHATEL
5.7237;48.9857;55551;55210;VIGNEULLES LES HATTONCHATEL
5.7237;48.9857;55551;55210;VIGNEULLES LES HATTONCHATEL
5.7237;48.9857;55551;55210;VIGNEULLES LES HATTONCHATEL
5.7237;48.9857;55551;55210;VIGNEULLES LES HATTONCHATEL
5.7237;48.9857;55551;55210;VIGNEULLES LES HATTONCHATEL
5.7237;48.9857;55551;55210;VIGNEULLES LES HATTONCHATEL
2.2805;50.0997;80168;80750;CANDAS
3.1899;46.5243;03275;03210;SOUVIGNY
-1.2258;47.4289;44096;44522;MESANGER
3.7363;48.1976;10003;10190;AIX VILLEMAUR PALIS
3.7363;48.1976;10003;10190;AIX VILLEMAUR PALIS
3.7363;48.1976;10003;10160;AIX VILLEMAUR PALIS
-4.2178;48.1809;29172;29550;PLOMODIERN
-2.586;47.5225;56052;56750;DAMGAN
-2.4731;47.5548;56143;56190;MUZILLAC
-3.0007;47.6301;56046;56950;CRACH
2.6425;50.5014;62848;62131;VERQUIN
5.9573;49.4583;57038;57390;AUDUN LE TICHE
3.5903;46.377;03132;03220;JALIGNY SUR BESBRE
3.9235;49.8963;02295;02580;ETREAUPONT
3.4702;49.7886;02648;02240;RIBEMONT
7.3858;48.2803;67073;67730;CHATENOIS
1.6211;50.8116;62025;62164;AMBLETEUSE
7.26;48.1195;68005;68770;AMMERSCHWIHR
7.26;48.1195;68005;68410;AMMERSCHWIHR
2.5191;46.4872;03072;03370;CHAZEMAIS
0.9808;43.6127;32268;32490;MONFERRAN SAVES
-0.5401;44.423;33484;33113;ST SYMPHORIEN
-1.0545;45.694;17064;17920;BREUILLET
4.1078;44.2904;30037;30160;BESSEGES
4.1078;44.2904;30037;30160;BESSEGES
-0.9477;45.5729;17230;17132;MESCHERS SUR GIRONDE
1.0983;44.1263;82112;82200;MOISSAC
2.708;44.4676;12033;12340;BOZOULS
3.5101;47.461;58079;58500;CLAMECY
3.5101;47.461;58079;58500;CLAMECY
3.5101;47.461;58079;58500;CLAMECY
-2.1607;48.3021;22032;22350;CAULNES
-1.8887;48.455;35308;35720;ST PIERRE DE PLESGUEN
2.1289;43.5511;81289;81580;SOUAL
9.4569;42.5739;2B042;20290;BORGO
9.4569;42.5739;2B042;20290;BORGO
1.0807;45.5052;24218;24630;JUMILHAC LE GRAND
4.4211;44.9076;07064;07160;LE CHEYLARD
0.4662;45.0893;24309;24190;NEUVIC
-3.6954;47.9351;29004;29380;BANNALEC
4.5666;48.5158;10094;10330;CHAVANGES
-1.631;43.3948;64483;64500;ST JEAN DE LUZ
4.8438;45.4798;38336;38121;REVENTIN VAUGRIS
3.0459;43.3772;34225;34620;PUISSERGUIER
-1.3281;47.8282;35167;35640;MARTIGNE FERCHAUD
5.6765;47.572;70198;70180;DAMPIERRE SUR SALON
4.8165;46.184;01348;01140;ST DIDIER SUR CHALARONNE
4.4957;45.8771;69157;69490;PONTCHARRA SUR TURDINE
1.6312;45.7923;87024;87460;BUJALEUF
-0.8468;46.6613;85154;85390;MOUILLERON ST GERMAIN
-0.8468;46.6613;85154;85390;MOUILLERON ST GERMAIN
3.4825;45.6701;63334;63520;ST DIER D AUVERGNE
1.9494;50.9539;62548;62730;MARCK
1.7549;50.6339;62773;62830;SAMER
6.2327;44.4932;05050;05190;ESPINASSES
-0.5995;46.4828;79101;79160;COULONGES SUR L AUTIZE
4.5019;45.4698;42207;42400;ST CHAMOND
4.5019;45.4698;42207;42400;ST CHAMOND
4.5019;45.4698;42207;42400;ST CHAMOND
4.5019;45.4698;42207;42400;ST CHAMOND
3.7423;45.9461;42276;42830;ST PRIEST LA PRUGNE
0.7076;49.1148;27622;27470;SERQUIGNY
2.1848;49.1919;60088;60540;BORNEL
2.1848;49.1919;60088;60540;BORNEL
2.1848;49.1919;60088;60540;BORNEL
4.186;44.8287;07235;07510;STE EULALIE
6.7425;46.1732;74191;74110;MORZINE
6.7425;46.1732;74191;74110;MORZINE
-0.8623;45.1404;33424;33112;ST LAURENT MEDOC
2.6263;42.4498;66009;66150;ARLES SUR TECH
-2.8221;47.6336;56003;56610;ARRADON
6.5596;47.0158;25285;25570;GRAND COMBE CHATELEU
6.8653;47.9686;88116;88310;CORNIMONT
2.882;48.5978;77317;77720;MORMANT
1.059;46.4541;86273;86290;LA TRIMOUILLE
2.2714;47.322;18165;18330;NEUVY SUR BARANGEON
0.8164;46.918;37113;37350;LE GRAND PRESSIGNY
5.5621;45.3189;38239;38430;MOIRANS
1.996;46.211;23002;23380;AJAIN
5.7809;48.6734;54205;54570;FOUG
1.9155;43.9864;81051;81140;CAHUZAC SUR VERE
-3.766;47.8725;29217;29930;PONT AVEN
5.1996;43.3537;13033;13820;ENSUES LA REDONNE
5.1996;43.3537;13033;13820;ENSUES LA REDONNE
6.6495;44.8995;05023;05100;BRIANCON
1.7542;50.0764;80578;80870;MOYENNEVILLE
3.5395;45.8621;63430;63300;THIERS
6.3719;43.6283;83003;83111;AMPUS
3.9252;44.2554;48051;48160;LE COLLET DE DEZE
3.6859;44.648;48043;48170;CHATEAUNEUF DE RANDON
2.1757;50.1349;80086;80370;BERNAVILLE
2.1757;50.1349;80086;80370;BERNAVILLE
2.4662;49.0243;95280;95190;GOUSSAINVILLE
5.411;46.0497;01199;01640;JUJURIEUX
1.4466;49.7403;76462;76270;NEUFCHATEL EN BRAY
3.2329;48.858;77385;77510;REBAIS
-3.6198;48.6476;22194;22310;PLESTIN LES GREVES
-3.6198;48.6476;22194;22310;PLESTIN LES GREVES
3.3204;47.1734;58218;58700;PREMERY
0.6455;47.278;37159;37260;MONTS
9.2631;42.2523;2B105;20212;ERBAJOLO
8.9019;42.1045;2A266;20121;SALICE
1.0926;49.4413;76540;76100;ROUEN
1.0926;49.4413;76540;76000;ROUEN
3.8637;45.7934;42217;42111;ST DIDIER SUR ROCHEFORT
5.9419;43.8381;04230;04210;VALENSOLE
3.1171;44.0976;12145;12100;MILLAU
-1.6975;43.3495;64545;64122;URRUGNE
6.8206;44.5589;04193;04530;ST PAUL SUR UBAYE
4.2765;48.2629;10209;10270;LUSIGNY SUR BARSE
-1.5183;47.4471;44110;44390;NORT SUR ERDRE
2.319;50.7402;62040;62510;ARQUES
-1.193;47.7629;49248;49420;POUANCE
-0.3669;48.5818;61168;61600;LA FERTE MACE
-0.3669;48.5818;61168;61410;LA FERTE MACE
0.2803;48.7008;61275;61240;LE MERLERAULT
-1.4188;46.9713;44216;44116;VIEILLEVIGNE
3.5878;47.849;89263;89470;MONETEAU
3.5878;47.849;89263;89470;MONETEAU
2.052;48.741;78356;78114;MAGNY LES HAMEAUX
2.052;48.741;78356;78114;MAGNY LES HAMEAUX
9.0198;42.5201;2B190;20259;OLMI CAPPELLA
6.2425;46.191;74012;74100;ANNEMASSE
2.4593;49.2244;60589;60740;ST MAXIMIN
-2.1928;48.5885;22302;22750;ST JACUT DE LA MER
7.0844;48.2281;88032;88520;BAN DE LAVELINE
6.1496;48.7092;54357;54320;MAXEVILLE
6.1496;48.7092;54357;54320;MAXEVILLE
0.2672;45.6262;16146;16410;GARAT
5.3292;45.8917;01202;01150;LAGNIEU
3.5315;44.3985;48075;48320;ISPAGNAC
5.271;44.2761;26063;26170;BUIS LES BARONNIES
3.9519;44.3439;30130;30450;GENOLHAC
3.9519;44.3439;30130;30450;GENOLHAC
-1.1046;48.7821;50144;50670;COULOUVRAY BOISBENATRE
3.3065;43.4143;34300;34290;SERVIAN
1.7634;43.2034;11033;11420;BELPECH
6.4934;45.2382;73261;73140;ST MICHEL DE MAURIENNE
6.4934;45.2382;73261;73140;ST MICHEL DE MAURIENNE
6.4934;45.2382;73261;73140;ST MICHEL DE MAURIENNE
1.8283;46.3997;23112;23360;LOURDOUEIX ST PIERRE
1.8283;46.3997;23112;23360;LOURDOUEIX ST PIERRE
2.3002;49.1401;95052;95260;BEAUMONT SUR OISE
3.3675;46.4508;03025;03340;BESSAY SUR ALLIER
4.3504;47.6576;21425;21500;MONTBARD
5.038;45.0548;26281;26100;ROMANS SUR ISERE
6.6485;45.1746;73157;73500;MODANE
8.7373;42.0285;2A048;20111;CALCATOGGIO
9.4344;42.3279;2B334;20234;VALLE D ALESANI
1.1358;44.5166;46231;46700;PUY L EVEQUE
3.7215;48.5186;10323;10100;ROMILLY SUR SEINE
6.2768;46.7792;25320;25160;LABERGEMENT STE MARIE
6.2768;46.7792;25320;25160;LABERGEMENT STE MARIE
4.1835;43.5507;30003;30220;AIGUES MORTES
3.7562;45.5558;63003;63600;AMBERT
0.418;46.5053;86180;86340;NOUAILLE MAUPERTUIS
0.8174;47.0423;37130;37240;LIGUEIL
4.1187;45.5129;42021;42560;BOISSET ST PRIEST
3.9275;50.1243;59036;59440;AVESNES SUR HELPE
2.0367;43.187;11136;11270;FANJEAUX
-0.3573;48.2533;53016;53160;BAIS
0.2;47.9885;72181;72100;LE MANS
0.2;47.9885;72181;72000;LE MANS
5.577;43.6285;13074;13860;PEYROLLES EN PROVENCE
2.809;46.6265;03048;03350;CERILLY
5.6019;45.2694;38540;38113;VEUREY VOROIZE
0.0385;45.274;16073;16210;CHALAIS
0.0385;45.274;16073;16210;CHALAIS
0.0385;45.274;16073;16210;CHALAIS
-1.6001;46.4245;85114;85520;JARD SUR MER
5.6913;48.3565;88321;88300;NEUFCHATEAU
-0.3805;46.3517;79081;79180;CHAURAY
2.7527;42.474;66049;66400;CERET
5.3062;43.5423;13114;13122;VENTABREN
5.3062;43.5423;13114;13122;VENTABREN
-0.3518;46.7955;79088;79350;CHICHE
7.9568;48.8086;67472;67620;SOUFFLENHEIM
5.4123;47.3016;21496;21270;PONTAILLER SUR SAONE
2.7093;44.2777;12185;12290;PONT DE SALARS
6.7433;46.0878;74258;74340;SAMOENS
-3.4443;48.5515;22228;22810;PLOUNEVEZ MOEDEC
-0.766;48.0609;53130;53000;LAVAL
2.9813;49.28;60083;60123;BONNEUIL EN VALOIS
0.3946;44.6735;24167;24500;EYMET
2.7209;46.7156;03003;03360;AINAY LE CHATEAU
5.2527;46.8825;71351;71270;PIERRE DE BRESSE
5.2527;46.8825;71351;71270;PIERRE DE BRESSE
6.5029;43.7035;83044;83840;COMPS SUR ARTUBY
5.8988;46.7445;39097;39300;CHAMPAGNOLE
3.0268;42.8994;11202;11370;LEUCATE
3.0268;42.8994;11202;11370;LEUCATE
3.0268;42.8994;11202;11370;LEUCATE
8.9877;41.6988;2A118;20143;FOZZANO
9.1157;41.7505;2A285;20152;SORBOLLANO
1.0202;44.0658;82169;82210;ST NICOLAS DE LA GRAVE
1.9271;47.712;45146;45240;LA FERTE ST AUBIN
-0.3778;48.7112;61063;61220;BRIOUZE
0.5126;49.74;76719;76540;VALMONT
5.6969;49.3334;55500;55230;SPINCOURT
5.6969;49.3334;55500;55230;SPINCOURT
5.6969;49.3334;55500;55230;SPINCOURT
5.6969;49.3334;55500;55230;SPINCOURT
5.6969;49.3334;55500;55230;SPINCOURT
-3.8156;48.6372;29186;29252;PLOUEZOC H
4.8626;47.7803;21519;21290;RECEY SUR OURCE
6.5834;47.832;70227;70310;FAUCOGNEY ET LA MER
2.019;47.9318;45034;45760;BOIGNY SUR BIONNE
5.1475;45.4983;38399;38440;ST JEAN DE BOURNAY
6.4965;47.6852;70310;70200;LURE
8.7596;42.5456;2B050;20260;CALVI
-0.2879;49.2437;14060;14970;BENOUVILLE
4.756;47.9542;21432;21520;MONTIGNY SUR AUBE
-1.7293;47.231;44047;44220;COUERON
-1.7293;47.231;44047;44220;COUERON
5.4649;43.3671;13075;13380;PLAN DE CUQUES
3.1096;45.6673;63315;63450;ST AMANT TALLENDE
4.8034;47.0806;21590;21420;SAVIGNY LES BEAUNE
5.0767;49.5899;08311;08210;MOUZON
5.0767;49.5899;08311;08210;MOUZON
4.1152;44.3922;07334;07140;LES VANS
4.1152;44.3922;07334;07140;LES VANS
4.1152;44.3922;07334;07140;LES VANS
4.1152;44.3922;07334;07140;LES VANS
1.8321;50.1084;80001;80100;ABBEVILLE
-0.9034;46.8917;85082;85590;LES EPESSES
-4.014;48.7454;29082;29253;ILE DE BATZ
3.5861;47.6989;89118;89580;COULANGES LA VINEUSE
3.3869;47.3568;58304;58210;VARZY
-3.5565;47.8561;29233;29300;QUIMPERLE
-0.9161;49.2992;14711;14710;TREVIERES
9.0392;41.92;2A119;20157;FRASSETO
-3.4813;48.1319;56100;56630;LANGONNET
8.9824;42.047;2A330;20133;UCCIANI
0.4022;48.0578;72241;72450;MONTFORT LE GESNOIS
-0.5595;47.1373;49373;49560;LYS HAUT LAYON
-0.5595;47.1373;49373;49540;LYS HAUT LAYON
-0.5595;47.1373;49373;49540;LYS HAUT LAYON
1.2067;44.8983;24520;24200;SARLAT LA CANEDA
9.2631;42.5314;2B140;20252;LENTO
5.6841;45.7495;01034;01300;BELLEY
-0.7357;43.0398;64040;64570;ARETTE
5.9876;43.5524;83012;83670;BARJOLS
-1.4064;49.1238;50550;50490;ST SAUVEUR LENDELIN
3.2813;44.7234;48009;48130;AUMONT AUBRAC
3.0344;50.5463;59560;59113;SECLIN
2.0301;47.8362;45300;45640;SANDILLON
2.1851;47.7792;45324;45510;TIGY
2.4623;50.5321;62188;62151;BURBURE
-3.7272;48.5053;29191;29640;PLOUGONVEN
-4.4917;48.245;29042;29160;CROZON
-4.4917;48.245;29042;29160;CROZON
-4.4917;48.245;29042;29160;CROZON
-3.3782;47.75;56121;56100;LORIENT
6.3609;46.2632;74043;74890;BONS EN CHABLAIS
5.8286;45.2519;38397;38330;ST ISMIER
-1.223;43.4681;64094;64520;BARDOS
3.4001;46.317;03298;03150;VARENNES SUR ALLIER
-0.9457;48.4831;53100;53190;FOUGEROLLES DU PLESSIS
7.7675;48.5713;67482;67100;STRASBOURG
7.7675;48.5713;67482;67200;STRASBOURG
7.7675;48.5713;67482;67000;STRASBOURG
2.918;46.7351;03155;03320;LURCY LEVIS
8.8037;42.4784;2B049;20214;CALENZANA
8.8037;42.4784;2B049;20214;CALENZANA
1.1394;45.9095;87143;87510;ST GENCE
4.6622;43.5467;13004;13200;ARLES
4.6622;43.5467;13004;13200;ARLES
4.6622;43.5467;13004;13104;ARLES
4.6622;43.5467;13004;13129;ARLES
4.6622;43.5467;13004;13280;ARLES
4.6622;43.5467;13004;13280;ARLES
4.6622;43.5467;13004;13123;ARLES
3.8718;44.7653;43154;43420;PRADELLES
-1.4705;47.1604;44215;44120;VERTOU
-1.4705;47.1604;44215;44120;VERTOU
0.5036;43.9866;32345;32480;LA ROMIEU
1.753;43.5291;31106;31460;CARAMAN
1.5824;43.9881;82115;82230;MONCLAR DE QUERCY
3.7322;43.9886;30325;30440;SUMENE
3.7322;43.9886;30325;30440;SUMENE
0.3127;46.7257;86281;86380;VENDEUVRE DU POITOU
2.9177;43.5401;34187;34390;OLARGUES
5.7329;46.8222;39434;39800;POLIGNY
0.8339;43.3811;31239;31230;L ISLE EN DODON
0.3021;44.2535;47043;47160;BUZET SUR BAISE
-0.4419;46.6116;79311;79130;SECONDIGNY
-1.5739;48.5311;35222;35610;PLEINE FOUGERES
4.9213;46.8792;71215;71590;GERGY
-0.3043;49.2282;14076;14550;BLAINVILLE SUR ORNE
-1.141;46.6297;85034;85480;BOURNEZEAU
-1.141;46.6297;85034;85480;BOURNEZEAU
9.1098;41.7789;2A278;20127;SERRA DI SCOPAMENE
3.3364;44.8631;48090;48140;LE MALZIEU VILLE
1.0817;49.4677;76451;76130;MONT ST AIGNAN
4.614;44.3831;07042;07700;BOURG ST ANDEOL
-3.1998;48.466;22013;22390;BOURBRIAC
3.8118;46.9732;58182;58290;MOULINS ENGILBERT
2.8027;47.5354;45029;45630;BEAULIEU SUR LOIRE
2.7062;44.0179;12037;12480;BROQUIES
9.367;42.7067;2B205;20253;PATRIMONIO
1.3237;50.0191;76192;76910;CRIEL SUR MER
1.3237;50.0191;76192;76910;CRIEL SUR MER
0.6758;44.2355;47209;47480;PONT DU CASSE
-2.195;48.1926;35297;35290;ST MEEN LE GRAND
0.534;49.5087;76384;76170;LILLEBONNE
1.9753;48.9656;78643;78540;VERNOUILLET
1.9753;48.9656;78643;78540;VERNOUILLET
4.7701;49.7902;08003;08090;AIGLEMONT
3.8249;47.2895;58145;58140;LORMES
7.0295;43.6283;06152;06560;VALBONNE
7.0295;43.6283;06152;06560;VALBONNE
2.603;48.9167;77139;77181;COURTRY
4.8149;45.0536;07324;07300;TOURNON SUR RHONE
2.2318;44.0187;81306;81350;VALDERIES
1.8326;45.433;19181;19390;ST AUGUSTIN
4.6816;43.9812;30217;30650;ROCHEFORT DU GARD
0.9972;49.2768;76231;76500;ELBEUF
-4.0773;47.8781;29006;29950;BENODET
-3.9072;47.8966;29039;29900;CONCARNEAU
4.8654;49.3557;08198;08250;GRANDPRE
4.8654;49.3557;08198;08250;GRANDPRE
1.699;46.3778;23087;23450;FRESSELINES
2.7216;49.9549;80136;80340;BRAY SUR SOMME
4.9583;45.2782;26330;26210;ST SORLIN EN VALLOIRE
3.5778;43.4293;34157;34140;MEZE
-0.083;47.2673;49328;49400;SAUMUR
-0.083;47.2673;49328;49400;SAUMUR
-0.083;47.2673;49328;49400;SAUMUR
-0.083;47.2673;49328;49400;SAUMUR
-0.083;47.2673;49328;49400;SAUMUR
6.6234;48.5424;54472;54950;ST CLEMENT
2.5857;49.2118;60612;60300;SENLIS
2.4283;48.9362;93013;93350;LE BOURGET
5.925;47.2254;25258;25770;FRANOIS
-0.9385;49.1921;50110;50680;CERISY LA FORET
1.229;43.592;31291;31490;LEGUEVIN
7.7419;48.6319;67471;67460;SOUFFELWEYERSHEIM
1.2804;43.7641;31232;31330;GRENADE
4.1357;43.682;34145;34400;LUNEL
4.3481;43.8449;30189;30900;NIMES
4.3481;43.8449;30189;30900;NIMES
4.3481;43.8449;30189;30000;NIMES
1.7402;45.7108;87064;87120;EYMOUTIERS
6.1384;45.0159;38253;38860;MONT DE LANS
6.1384;45.0159;38253;38860;MONT DE LANS
6.0998;45.9018;74093;74960;CRAN GEVRIER
2.2584;42.9944;11008;11580;ALET LES BAINS
4.4264;46.8069;71153;71200;LE CREUSOT
8.8541;42.0902;2A144;20139;LOPIGNA
5.8235;48.6415;54162;54119;DOMGERMAIN
4.9067;48.9489;51272;51330;GIVRY EN ARGONNE
5.2691;48.5436;55348;55290;MONTIERS SUR SAULX
3.1155;45.7857;63113;63100;CLERMONT FERRAND
3.1155;45.7857;63113;63000;CLERMONT FERRAND
0.2383;49.1467;14366;14100;LISIEUX
-0.4281;43.3405;64335;64230;LESCAR
6.175;46.0176;74137;74570;GROISY
2.0953;50.4086;62050;62770;AUCHY LES HESDIN
5.9283;44.0352;04149;04310;PEYRUIS
7.2508;48.0865;68338;68230;TURCKHEIM
1.6294;46.1177;23021;23210;BENEVENT L ABBAYE
6.8591;48.0653;88196;88400;GERARDMER
-3.3118;48.2215;22266;22110;ROSTRENEN
-3.3118;48.2215;22266;22110;ROSTRENEN
6.3403;43.2414;83043;83610;COLLOBRIERES
6.5658;48.4442;54331;54129;MAGNIERES
4.4742;46.7473;71310;71210;MONTCHANIN
0.4865;44.8544;24037;24100;BERGERAC
-1.7145;47.9672;35139;35890;LAILLE
2.2634;50.768;62765;62500;ST OMER
-2.2491;48.6038;22282;22380;ST CAST LE GUILDO
-2.2491;48.6038;22282;22380;ST CAST LE GUILDO
1.9349;50.7963;62506;62850;LICQUES
2.0229;47.9025;45089;45430;CHECY
4.1238;49.4733;08024;08190;ASFELD
6.0117;49.232;54280;54240;JOEUF
3.1816;49.0832;02339;02810;GANDELU
3.2979;48.1957;89387;89100;SENS
-0.4225;43.7926;40117;40270;GRENADE SUR L ADOUR
2.2147;49.5658;60265;60480;FROISSY
1.171;43.1197;09257;09230;STE CROIX VOLVESTRE
2.819;48.3868;77419;77670;ST MAMMES
2.0381;50.3738;62447;62140;HESDIN
3.0514;46.5837;03036;03160;BOURBON L ARCHAMBAULT
2.3501;50.3884;62767;62130;ST POL SUR TERNOISE
1.485;49.088;27681;27200;VERNON
4.9488;45.7015;69290;69800;ST PRIEST
1.4919;46.1679;23231;23290;ST PIERRE DE FURSAC
-1.3136;46.976;85146;85600;MONTAIGU
-0.5179;47.2593;49345;49380;BELLEVIGNE EN LAYON
-0.5179;47.2593;49345;49380;BELLEVIGNE EN LAYON
-0.5179;47.2593;49345;49380;BELLEVIGNE EN LAYON
-0.5179;47.2593;49345;49380;BELLEVIGNE EN LAYON
-0.5401;46.2557;79130;79270;FRONTENAY ROHAN ROHAN
-0.803;48.6718;50200;50850;GER
6.4981;48.592;54329;54300;LUNEVILLE
7.3421;48.7402;67437;67700;SAVERNE
7.3421;48.7402;67437;67700;SAVERNE
7.3421;48.7402;67437;67700;SAVERNE
1.6765;48.7796;78263;78950;GAMBAIS
3.1009;50.6753;59378;59700;MARCQ EN BAROEUL
0.3718;47.9315;72231;72250;PARIGNE L EVEQUE
3.1297;44.8115;48064;48310;FOURNELS
0.3348;45.2458;24352;24600;RIBERAC
2.9486;50.4895;62215;62220;CARVIN
-0.0197;46.2658;79148;79120;LEZAY
2.608;49.305;60509;60700;PONT STE MAXENCE
-1.2713;49.0364;50111;50210;CERISY LA SALLE
4.1836;45.2906;43137;43120;MONISTROL SUR LOIRE
3.6178;48.001;89055;89210;BRIENON SUR ARMANCON
3.6178;48.001;89055;89210;BRIENON SUR ARMANCON
4.6639;44.103;30141;30290;LAUDUN L ARDOISE
4.6639;44.103;30141;30290;LAUDUN L ARDOISE
9.327;42.5672;2B172;20239;MURATO
1.0002;47.3917;37003;37400;AMBOISE
0.697;46.9944;37115;37160;DESCARTES
4.9411;45.8442;01249;01700;MIRIBEL
4.9411;45.8442;01249;01700;MIRIBEL
4.9411;45.8442;01249;01700;MIRIBEL
6.5504;47.2194;25453;25510;PIERREFONTAINE LES VARANS
-4.3572;48.2337;29280;29560;TELGRUC SUR MER
9.2832;42.6872;2B298;20217;ST FLORENT
0.4537;49.2733;27218;27260;EPAIGNES
7.8458;48.6836;67237;67840;KILSTETT
-0.0436;45.1669;17309;17360;ST AIGULIN
2.0012;43.7577;81105;81300;GRAULHET
1.0744;49.0126;27602;27180;ST SEBASTIEN DE MORSENT
3.4078;48.6517;77519;77560;VILLIERS ST GEORGES
5.1718;49.6387;08090;08110;CARIGNAN
5.1718;49.6387;08090;08110;CARIGNAN
6.3643;44.9997;05181;05480;VILLAR D ARENE
3.1183;48.4778;77159;77520;DONNEMARIE DONTILLY
5.212;47.1384;21103;21470;BRAZEY EN PLAINE
2.1967;44.221;12258;12440;LA SALVETAT PEYRALES
0.8901;44.821;24068;24480;LE BUISSON DE CADOUIN
0.8901;44.821;24068;24480;LE BUISSON DE CADOUIN
0.8901;44.821;24068;24480;LE BUISSON DE CADOUIN
0.6726;43.0337;31535;31510;SAUVETERRE DE COMMINGES
4.6515;47.601;21043;21450;BAIGNEUX LES JUIFS
3.6384;46.2648;03138;03120;LAPALISSE
-3.5663;48.2688;29024;29270;CARHAIX PLOUGUER
0.1362;45.7564;16393;16330;VARS
0.1555;45.0197;24294;24700;MONTPON MENESTEROL
0.3018;44.1829;47143;47230;LAVARDAC
7.8314;48.6593;67519;67610;LA WANTZENAU
5.5196;46.6869;39362;39570;MONTMOROT
5.5196;46.6869;39362;39570;MONTMOROT
-1.0466;48.8218;14658;14380;ST SEVER CALVADOS
6.9627;43.6993;06010;06620;LE BAR SUR LOUP
5.1694;46.0076;01074;01320;CHALAMONT
0.4152;46.1403;86061;86250;CHARROUX
0.637;44.2533;47100;47510;FOULAYRONNES
5.8323;46.1068;01033;01200;BELLEGARDE SUR VALSERINE
1.3793;43.8518;31202;31620;FRONTON
-0.8744;45.9634;17449;17430;TONNAY CHARENTE
4.3197;45.0525;43051;43400;LE CHAMBON SUR LIGNON
7.2887;43.7459;06114;06730;ST ANDRE DE LA ROCHE
4.8663;44.9301;07102;07500;GUILHERAND GRANGES
9.0161;42.0698;2A324;20163;TAVERA
3.0832;45.0279;15187;15100;ST FLOUR
-3.9753;48.2382;29162;29190;PLEYBEN
-1.361;43.8581;40187;40660;MOLIETS ET MAA
2.6806;44.876;12164;12600;MUR DE BARREZ
5.2859;48.2358;52008;52700;ANDELOT BLANCHEVILLE
5.2859;48.2358;52008;52700;ANDELOT BLANCHEVILLE
-1.6372;47.4208;44073;44810;HERIC
6.5978;48.1372;88101;88460;CHENIMENIL
-0.9152;45.5993;17425;17120;SEMUSSAC
8.9048;41.7121;2A189;20113;OLMETO
1.9132;49.0064;78401;78250;MEULAN EN YVELINES
4.5919;47.8582;21154;21400;CHATILLON SUR SEINE
3.4845;50.5129;59238;59158;FLINES LES MORTAGNE
-0.6114;44.3064;40307;40430;SORE
5.8596;43.451;83116;83470;ST MAXIMIN LA STE BAUME
5.5633;43.2935;13005;13400;AUBAGNE
5.5633;43.2935;13005;13400;AUBAGNE
0.0652;48.7517;61474;61310;SILLY EN GOUFFERN
5.3186;47.7601;52292;52250;LONGEAU PERCEY
5.3186;47.7601;52292;52250;LONGEAU PERCEY
5.3186;47.7601;52292;52250;LONGEAU PERCEY
0.6218;44.4481;47049;47440;CASSENEUIL
0.2971;47.9784;72058;72560;CHANGE
2.9853;45.1324;15141;15170;NEUSSARGUES MOISSAC
0.8055;44.1879;47217;47270;PUYMIROL
3.3777;45.1943;43264;43380;VILLENEUVE D ALLIER
2.3541;43.576;81196;81490;NOAILHAC
2.2074;46.5547;18057;18370;CHATEAUMEILLANT
-1.7684;47.1407;44133;44710;PORT ST PERE
5.6132;43.1926;13028;13600;LA CIOTAT
-2.4171;47.3313;44069;44350;GUERANDE
-2.4171;47.3313;44069;44350;GUERANDE
-2.4171;47.3313;44069;44350;GUERANDE
-2.4171;47.3313;44069;44350;GUERANDE
2.8436;49.6;60350;60310;LASSIGNY
-1.1731;48.7251;50074;50370;BRECEY
2.5937;50.0802;80498;80560;MAILLY MAILLET
3.3683;43.5045;34063;34720;CAUX
6.6474;45.3895;73227;73120;ST BON TARENTAISE
6.6474;45.3895;73227;73120;ST BON TARENTAISE
1.3921;46.316;87182;87160;ST SULPICE LES FEUILLES
-1.2919;46.6729;85046;85310;LA CHAIZE LE VICOMTE
-1.2919;46.6729;85046;85310;LA CHAIZE LE VICOMTE
1.4786;46.0045;87079;87340;LA JONCHERE ST MAURICE
-1.8245;46.8977;85096;85710;LA GARNACHE
1.7783;44.3966;46173;46260;LIMOGNE EN QUERCY
1.93;45.59;19033;19170;BUGEAT
4.7246;44.243;84078;84430;MONDRAGON
5.6216;48.6744;55573;55190;VOID VACON
5.6216;48.6744;55573;55190;VOID VACON
5.9379;47.4896;70257;70130;FRETIGNEY ET VELLOREILLE
1.9135;46.323;23025;23220;BONNAT
2.4362;47.0078;18180;18340;PLAIMPIED GIVAUDINS
9.0926;41.8068;2A024;20116;AULLENE
6.2852;45.7492;74123;74210;FAVERGES SEYTHENEX
6.2852;45.7492;74123;74210;FAVERGES SEYTHENEX
-1.3866;47.7222;44036;44110;CHATEAUBRIANT
1.8168;50.9122;62360;62185;FRETHUN
4.5381;44.5874;07247;07580;ST JEAN LE CENTENIER
2.4631;44.6062;12268;12320;SENERGUES
4.7341;44.9398;07007;07440;ALBOUSSIERE
4.1646;47.7773;89005;89160;ANCY LE FRANC
4.1646;47.7773;89005;89160;ANCY LE FRANC
4.2078;46.5475;71340;71430;PALINGES
-0.6817;44.8323;33281;33700;MERIGNAC
-1.8253;46.7675;85071;85220;COMMEQUIERS
7.7442;48.9413;67550;67360;WOERTH
5.0528;47.2858;21355;21600;LONGVIC
2.5312;50.0716;80003;80560;ACHEUX EN AMIENOIS
3.0806;45.9858;63116;63460;COMBRONDE
0.0893;44.6462;33289;33580;MONSEGUR
4.0714;45.6008;42147;42600;MONTBRISON
4.0714;45.6008;42147;42600;MONTBRISON
-1.7815;48.0974;35240;35650;LE RHEU
-1.7815;48.0974;35240;35650;LE RHEU
-3.0023;48.8505;22016;22870;ILE DE BREHAT
-2.4744;47.2845;44010;44740;BATZ SUR MER
2.0677;46.5042;36208;36160;STE SEVERE SUR INDRE
3.1481;42.4439;66048;66290;CERBERE
2.8532;50.5817;59303;59134;HERLIES
-1.6232;47.274;44114;44700;ORVAULT
-3.8713;48.1057;29291;29970;TREGOUREZ
0.411;48.4439;61327;61360;PERVENCHERES
2.8653;45.9426;63349;63780;ST GEORGES DE MONS
-0.2723;43.56;64233;64330;GARLIN
5.9232;46.3731;39510;39310;SEPTMONCEL
5.8976;46.9478;39500;39110;SALINS LES BAINS
-1.5483;47.2316;44109;44100;NANTES
-1.5483;47.2316;44109;44000;NANTES
-1.5483;47.2316;44109;44300;NANTES
-1.5483;47.2316;44109;44200;NANTES
4.1664;43.5074;30133;30240;LE GRAU DU ROI
4.1664;43.5074;30133;30240;LE GRAU DU ROI
0.2376;49.4129;14333;14600;HONFLEUR
0.2376;49.4129;14333;14600;HONFLEUR
9.3332;42.6416;2B185;20232;OLETTA
-0.6201;43.4663;64057;64370;ARTHEZ DE BEARN
2.9155;45.8391;63381;63230;ST OURS
7.3945;48.0108;68295;68127;STE CROIX EN PLAINE
-0.614;48.5825;61145;61700;DOMFRONT EN POIRAIE
-0.614;48.5825;61145;61700;DOMFRONT EN POIRAIE
-0.614;48.5825;61145;61700;DOMFRONT EN POIRAIE
8.98;41.884;2A312;20190;SANTA MARIA SICHE
-1.4125;49.1918;50394;50190;PERIERS
2.6871;43.6022;34293;34330;LA SALVETAT SUR AGOUT
-3.2697;47.8075;56083;56700;HENNEBONT
3.5029;43.6502;34239;34725;ST ANDRE DE SANGONIS
6.2599;45.3456;73231;73130;ST ETIENNE DE CUINES
-1.9378;47.8117;35219;35550;PIPRIAC
-2.1284;48.5596;22209;22650;PLOUBALAY
-0.1648;45.6865;16167;16200;JARNAC
3.4132;43.6339;34079;34800;CLERMONT L HERAULT
1.3059;45.1562;19066;19520;CUBLAC
4.5945;44.7225;07186;07000;PRIVAS
6.124;44.1473;04217;04380;THOARD
6.124;44.1473;04217;04380;THOARD
-0.7992;47.9279;53186;53360;QUELAINES ST GAULT
-0.7992;47.9279;53186;53360;QUELAINES ST GAULT
0.3323;43.578;32285;32320;MONTESQUIOU
3.8747;44.9849;43084;43370;CUSSAC SUR LOIRE
-4.4845;48.0137;29197;29780;PLOUHINEC
4.2167;45.9436;42289;42470;ST SYMPHORIEN DE LAY
-2.2997;47.6862;56123;56220;MALANSAC
1.8865;43.9171;81099;81600;GAILLAC
3.8093;50.0087;02558;02170;LE NOUVION EN THIERACHE
-0.4177;49.3195;14066;14990;BERNIERES SUR MER
-0.9577;47.0804;49332;49280;LA SEGUINIERE
-3.2518;47.8558;56090;56650;INZINZAC LOCHRIST
5.5824;45.3792;38563;38500;VOIRON
1.5351;43.5591;31506;31650;ST ORENS DE GAMEVILLE
-0.9014;47.519;49183;49370;LE LOUROUX BECONNAIS
6.7652;47.5699;70285;70400;HERICOURT
6.7652;47.5699;70285;70400;HERICOURT
6.7652;47.5699;70285;70400;HERICOURT
2.3213;43.7243;81182;81360;MONTREDON LABESSONNIE
3.4165;43.463;34199;34120;PEZENAS
3.3054;46.3045;03254;03500;ST POURCAIN SUR SIOULE
3.3446;44.4502;48039;48230;CHANAC
3.3446;44.4502;48039;48230;CHANAC
-0.3445;45.1238;33233;33620;LARUSCADE
-1.7282;47.7344;35124;35390;GRAND FOUGERAY
4.1682;45.4893;42256;42680;ST MARCELLIN EN FOREZ
2.3885;43.4579;81163;81200;MAZAMET
4.9117;45.7345;69029;69500;BRON
2.1093;43.599;81281;81570;SEMALENS
3.6569;47.7397;89337;89530;ST BRIS LE VINEUX
-2.9705;48.073;56178;56300;PONTIVY
2.0796;50.0103;80318;80420;FLIXECOURT
2.3815;47.6299;45063;45620;CERDON
1.3415;44.5584;46064;46150;CATUS
6.2359;44.0909;04070;04000;DIGNE LES BAINS
6.2359;44.0909;04070;04000;DIGNE LES BAINS
0.5715;43.4982;32426;32260;SEISSAN
0.5715;43.4982;32426;32260;SEISSAN
2.1805;45.6694;19261;19290;SORNAC
5.7896;45.9659;01118;01420;CORBONOD
5.3337;47.0327;39476;39410;ST AUBIN
2.4145;42.7146;66198;66730;SOURNIA
5.0473;46.2423;01246;01660;MEZERIAT
0.7604;44.6331;47324;47210;VILLEREAL
3.8701;47.6196;89208;89440;JOUX LA VILLE
3.0966;47.0759;58214;58320;POUGUES LES EAUX
5.0688;48.55;52265;52170;BAYARD SUR MARNE
5.0688;48.55;52265;52170;BAYARD SUR MARNE
5.0688;48.55;52265;52170;BAYARD SUR MARNE
5.0688;48.55;52265;52170;BAYARD SUR MARNE
0.04;45.6676;16348;16290;ST SATURNIN
-1.1758;46.1619;17300;17000;LA ROCHELLE
-1.1758;46.1619;17300;17000;LA ROCHELLE
-1.1758;46.1619;17300;17000;LA ROCHELLE
2.6673;44.1908;12011;12120;ARVIEU
0.0991;47.0098;86137;86200;LOUDUN
0.0991;47.0098;86137;86200;LOUDUN
3.0514;50.4013;59234;59128;FLERS EN ESCREBIEUX
6.424;45.1233;73306;73450;VALLOIRE
2.1615;43.366;11367;11310;SAISSAC
3.7738;43.6168;34259;34680;ST GEORGES D ORQUES
6.0824;43.8285;04166;04500;RIEZ
3.0116;42.6839;66037;66140;CANET EN ROUSSILLON
3.0116;42.6839;66037;66140;CANET EN ROUSSILLON
-1.0789;44.7952;33011;33740;ARES
5.8541;45.6012;73179;73290;LA MOTTE SERVOLEX
5.9338;48.4574;54189;54115;FAVIERES
4.2887;47.2198;21349;21430;LIERNAIS
7.1368;48.4243;67377;67420;PLAINE
7.1368;48.4243;67377;67420;PLAINE
7.1368;48.4243;67377;67420;PLAINE
5.4901;45.2939;38517;38210;TULLINS
5.4901;45.2939;38517;38210;TULLINS
2.398;48.2894;45191;45330;LE MALESHERBOIS
2.398;48.2894;45191;45330;LE MALESHERBOIS
2.398;48.2894;45191;45330;LE MALESHERBOIS
2.398;48.2894;45191;45330;LE MALESHERBOIS
2.398;48.2894;45191;45330;LE MALESHERBOIS
2.398;48.2894;45191;45330;LE MALESHERBOIS
-2.8105;48.4103;22171;22940;PLAINTEL
-0.6505;47.3508;49259;49190;ROCHEFORT SUR LOIRE
0.1501;47.6543;72176;72800;LE LUDE
-1.4752;43.4019;64547;64480;USTARITZ
1.6658;49.1422;95101;95710;BRAY ET LU
-2.8002;47.5921;56088;56840;ILE D ARZ
4.4129;45.0053;07204;07320;ST AGREVE
4.4129;45.0053;07204;07320;ST AGREVE
0.441;45.8243;16085;16260;CHASSENEUIL SUR BONNIEURE
3.483;46.1378;03095;03300;CUSSET
7.5038;43.9404;06023;06540;BREIL SUR ROYA
-0.9367;45.6754;17421;17600;SAUJON
2.1908;42.8757;11304;11500;QUILLAN
2.1908;42.8757;11304;11500;QUILLAN
5.3486;48.907;55404;55260;PIERREFITTE SUR AIRE
5.1475;43.3866;13026;13220;CHATEAUNEUF LES MARTIGUES
5.1475;43.3866;13026;13220;CHATEAUNEUF LES MARTIGUES
3.0489;44.6444;48104;48260;NASBINALS
5.2962;48.6621;55291;55500;LIGNY EN BARROIS
1.4486;44.0816;82002;82350;ALBIAS
2.4842;49.7762;80570;80110;MOREUIL
6.6077;46.1265;74276;74440;TANINGES
6.6077;46.1265;74276;74440;TANINGES
2.4162;47.9803;45031;45270;BELLEGARDE
1.327;43.6116;31149;31770;COLOMIERS
0.6474;46.1339;86015;86460;AVAILLES LIMOUZINE
-2.8252;48.5702;22251;22590;PORDIC
-2.8252;48.5702;22251;22590;PORDIC
-2.8252;48.5702;22251;22590;PORDIC
-1.5013;46.9274;85190;85620;ROCHESERVIERE
6.0665;49.3308;57306;57700;HAYANGE
6.0665;49.3308;57306;57700;HAYANGE
6.0665;49.3308;57306;57700;HAYANGE
1.086;48.112;28012;28290;ARROU
6.7693;47.8795;88468;88160;LE THILLOT
-1.6459;48.1812;35024;35830;BETTON
6.7787;48.6714;57488;57770;MOUSSEY
6.5862;43.2392;83065;83580;GASSIN
-1.6326;49.47;50082;50260;BRICQUEBEC EN COTENTIN
-1.6326;49.47;50082;50260;BRICQUEBEC EN COTENTIN
-1.6326;49.47;50082;50260;BRICQUEBEC EN COTENTIN
-1.6326;49.47;50082;50260;BRICQUEBEC EN COTENTIN
-1.6326;49.47;50082;50260;BRICQUEBEC EN COTENTIN
-1.6326;49.47;50082;50260;BRICQUEBEC EN COTENTIN
-1.0207;47.7072;49103;49520;COMBREE
-1.0207;47.7072;49103;49520;COMBREE
3.0196;50.3381;62173;62117;BREBIERES
0.201;43.4001;32464;32730;VILLECOMTAL SUR ARROS
2.2048;46.7617;18127;18160;LIGNIERES
3.6226;49.6986;02237;02270;CRECY SUR SERRE
4.3145;45.6034;42222;42330;ST GALMIER
-0.1382;47.9976;72168;72540;LOUE
-0.5737;44.8572;33063;33200;BORDEAUX
-0.5737;44.8572;33063;33100;BORDEAUX
-0.5737;44.8572;33063;33300;BORDEAUX
-0.5737;44.8572;33063;33800;BORDEAUX
-0.5737;44.8572;33063;33000;BORDEAUX
-0.8839;44.5415;33498;33770;SALLES
1.4904;43.8644;31584;31340;VILLEMUR SUR TARN
3.0202;43.1652;11262;11100;NARBONNE
3.0202;43.1652;11262;11100;NARBONNE
2.2129;44.4768;12148;12220;MONTBAZENS
-0.8779;47.0454;49099;49300;CHOLET
-0.8779;47.0454;49099;49300;CHOLET
-0.6341;47.4744;49020;49070;BEAUCOUZE
5.2519;43.6615;13050;13410;LAMBESC
-2.3127;47.3234;44151;44117;ST ANDRE DES EAUX
0.2849;47.825;72124;72220;ECOMMOY
1.1272;44.2643;82094;82110;LAUZERTE
7.001;48.6664;57414;57790;LORQUIN
0.655;44.1206;47145;47390;LAYRAC
6.5015;43.9713;04173;04170;ST ANDRE LES ALPES
0.7266;43.1199;31483;31800;ST GAUDENS
1.6002;44.4864;46268;46330;ST GERY
6.6509;45.4621;73055;73350;BOZEL
1.7825;45.8083;87117;87470;PEYRAT LE CHATEAU
-0.5963;46.9403;79195;79250;NUEIL LES AUBIERS
-0.5963;46.9403;79195;79250;NUEIL LES AUBIERS
1.427;47.1148;36103;36360;LUCAY LE MALE
-1.7404;46.8151;85204;85670;ST CHRISTOPHE DU LIGNERON
-2.1466;47.3231;44103;44550;MONTOIR DE BRETAGNE
0.1057;43.8607;32119;32800;EAUZE
-0.1577;45.478;16028;16300;BARBEZIEUX ST HILAIRE
-0.1577;45.478;16028;16300;BARBEZIEUX ST HILAIRE
2.2342;44.8574;15268;15290;LE ROUGET PERS
2.2342;44.8574;15268;15290;LE ROUGET PERS
1.3615;45.4106;19011;19230;ARNAC POMPADOUR
3.8531;45.3319;43080;43500;CRAPONNE SUR ARZON
4.7934;45.736;69202;69110;STE FOY LES LYON
-1.5553;43.3565;64495;64310;ST PEE SUR NIVELLE
7.0013;43.5961;06085;06250;MOUGINS
0.4167;42.8677;65099;65590;BORDERES LOURON
0.4167;42.8677;65099;65590;BORDERES LOURON
2.659;50.246;62097;62123;BEAUMETZ LES LOGES
1.4129;45.2632;19153;19130;OBJAT
1.61;45.6948;87040;87130;CHATEAUNEUF LA FORET
6.6235;45.8402;74173;74120;MEGEVE
0.3202;48.254;72189;72260;MAROLLES LES BRAULTS
-0.9836;47.2126;49023;49450;BEAUPREAU EN MAUGES
-0.9836;47.2126;49023;49600;BEAUPREAU EN MAUGES
-0.9836;47.2126;49023;49600;BEAUPREAU EN MAUGES
-0.9836;47.2126;49023;49600;BEAUPREAU EN MAUGES
-0.9836;47.2126;49023;49600;BEAUPREAU EN MAUGES
-0.9836;47.2126;49023;49600;BEAUPREAU EN MAUGES
-0.9836;47.2126;49023;49110;BEAUPREAU EN MAUGES
-0.9836;47.2126;49023;49510;BEAUPREAU EN MAUGES
-0.9836;47.2126;49023;49510;BEAUPREAU EN MAUGES
-0.9836;47.2126;49023;49510;BEAUPREAU EN MAUGES
4.2028;43.7372;30185;30121;MUS
2.3577;43.3995;11222;11380;MAS CABARDES
1.113;49.7125;76034;76720;AUFFAY
-0.6583;48.8636;14726;14350;VALDALLIERE
-0.6583;48.8636;14726;14350;VALDALLIERE
-0.6583;48.8636;14726;14350;VALDALLIERE
-0.6583;48.8636;14726;14410;VALDALLIERE
-0.6583;48.8636;14726;14410;VALDALLIERE
-0.6583;48.8636;14726;14410;VALDALLIERE
-0.6583;48.8636;14726;14410;VALDALLIERE
-0.6583;48.8636;14726;14410;VALDALLIERE
-0.6583;48.8636;14726;14410;VALDALLIERE
-0.6583;48.8636;14726;14410;VALDALLIERE
-0.6583;48.8636;14726;14410;VALDALLIERE
-0.6583;48.8636;14726;14410;VALDALLIERE
-0.6583;48.8636;14726;14410;VALDALLIERE
-0.6583;48.8636;14726;14410;VALDALLIERE
1.0249;45.8807;87185;87420;ST VICTURNIEN
0.9346;43.4935;32410;32130;SAMATAN
1.6234;46.7891;36202;36250;ST MAUR
1.6234;46.7891;36202;36250;ST MAUR
9.2924;42.1573;2B347;20242;VEZZANI
7.4649;48.8173;67061;67330;BOUXWILLER
7.4649;48.8173;67061;67330;BOUXWILLER
7.4649;48.8173;67061;67330;BOUXWILLER
7.4649;48.8173;67061;67330;BOUXWILLER
4.382;45.5305;42234;42570;ST HEAND
2.8043;48.1055;45145;45210;FERRIERES EN GATINAIS
2.4769;45.7994;63165;63620;GIAT
4.9426;49.0866;51507;51800;STE MENEHOULD
7.1407;43.7588;06122;06640;ST JEANNET
0.437;46.7432;86019;86490;BEAUMONT
0.437;46.7432;86019;86490;BEAUMONT
4.6872;44.3607;26235;26700;PIERRELATTE
2.0765;50.9333;62852;62162;VIEILLE EGLISE
2.1192;43.981;81048;81130;CAGNAC LES MINES
3.6878;46.4106;03240;03220;ST LEON
-3.4916;47.794;56078;56520;GUIDEL
1.694;46.803;36044;36000;CHATEAUROUX
3.055;49.6584;60291;60640;GUISCARD
5.6584;43.3608;13007;13390;AURIOL
-3.6913;48.1858;29278;29540;SPEZET
0.468;48.0507;72090;72160;CONNERRE
-0.6775;45.8863;17397;17350;ST SAVINIEN
-0.6775;45.8863;17397;17350;ST SAVINIEN
-0.6775;45.8863;17397;17350;ST SAVINIEN
2.0686;44.5596;12052;12700;CAPDENAC GARE
3.019;45.8682;63470;63530;VOLVIC
4.1477;46.6826;71542;71320;TOULON SUR ARROUX
3.4812;43.9902;30017;30770;ARRIGAS
6.7405;45.9546;74208;74190;PASSY
6.7405;45.9546;74208;74190;PASSY
6.7405;45.9546;74208;74480;PASSY
6.7405;45.9546;74208;74480;PASSY
6.7405;45.9546;74208;74480;PASSY
6.7405;45.9546;74208;74480;PASSY
6.7405;45.9546;74208;74480;PASSY
6.7405;45.9546;74208;74480;PASSY
6.7405;45.9546;74208;74480;PASSY
5.246;46.2052;01053;01000;BOURG EN BRESSE
5.246;46.2052;01053;01000;BOURG EN BRESSE
1.6073;44.9402;46185;46600;MARTEL
0.2333;44.8238;33324;33220;PINEUILH
4.7574;44.3483;26324;26130;ST PAUL TROIS CHATEAUX
5.6049;47.7869;52197;52500;FAYL BILLOT
5.6049;47.7869;52197;52500;FAYL BILLOT
5.6049;47.7869;52197;52500;FAYL BILLOT
-3.8015;47.9583;29241;29140;ROSPORDEN
-3.8015;47.9583;29241;29140;ROSPORDEN
4.1409;46.9689;71223;71990;LA GRANDE VERRIERE
3.7909;47.8076;89068;89800;CHABLIS
3.7909;47.8076;89068;89800;CHABLIS
3.7909;47.8076;89068;89800;CHABLIS
3.7909;47.8076;89068;89800;CHABLIS
7.1886;48.6198;57742;57870;WALSCHEID
5.313;47.7309;52529;52190;VILLEGUSIEN LE LAC
5.313;47.7309;52529;52190;VILLEGUSIEN LE LAC
5.313;47.7309;52529;52190;VILLEGUSIEN LE LAC
5.313;47.7309;52529;52190;VILLEGUSIEN LE LAC
6.4881;47.0544;25271;25650;GILLEY
1.0289;43.0312;09235;09160;PRAT BONREPAUX
-0.6725;46.8217;79062;79140;CERIZAY
6.5631;47.2902;25529;25430;SANCEY
6.5631;47.2902;25529;25430;SANCEY
3.3309;45.3723;43258;43360;VERGONGHEON
3.5812;47.3615;58286;58190;TANNAY
-1.5476;49.3799;50551;50390;ST SAUVEUR LE VICOMTE
0.3675;47.3499;37123;37130;LANGEAIS
-1.0245;49.0541;50139;50420;CONDE SUR VIRE
-1.0245;49.0541;50139;50890;CONDE SUR VIRE
-1.3293;48.9019;50197;50450;GAVRAY
-1.3293;48.9019;50197;50450;GAVRAY
-1.3293;48.9019;50197;50450;GAVRAY
0.6278;44.5474;47048;47290;CANCON
6.0305;44.3409;04134;04250;LA MOTTE DU CAIRE
-1.2484;46.3367;85255;85580;ST MICHEL EN L HERM
6.4785;43.6364;83082;83131;MONTFERRAT
1.2487;45.8542;87085;87100;LIMOGES
1.2487;45.8542;87085;87100;LIMOGES
1.2487;45.8542;87085;87000;LIMOGES
1.2487;45.8542;87085;87280;LIMOGES
1.2487;45.8542;87085;87280;LIMOGES
4.716;48.234;10033;10200;BAR SUR AUBE
1.2178;43.1925;31375;31310;MONTESQUIEU VOLVESTRE
-2.7615;48.515;22278;22000;ST BRIEUC
4.9044;43.4557;13039;13270;FOS SUR MER
5.4402;45.9505;01384;01230;ST RAMBERT EN BUGEY
5.6363;45.4609;38386;38620;ST GEOIRE EN VALDAINE
2.2036;45.2618;19264;19550;SOURSAC
2.9333;48.8567;77142;77580;CRECY LA CHAPELLE
2.9333;48.8567;77142;77580;CRECY LA CHAPELLE
-1.6258;47.3178;44209;44119;TREILLIERES
1.1089;47.1845;37111;37460;GENILLE
-0.0372;48.4579;61382;61420;ST DENIS SUR SARTHON
1.8589;46.046;23168;23250;SARDENT
9.1207;42.1524;2B354;20219;VIVARIO
9.1207;42.1524;2B354;20219;VIVARIO
9.1207;42.1524;2B354;20219;VIVARIO
5.637;49.2168;55181;55400;ETAIN
-4.4189;48.4938;29160;29860;PLABENNEC
5.72;43.9099;04192;04870;ST MICHEL L OBSERVATOIRE
5.72;43.9099;04192;04870;ST MICHEL L OBSERVATOIRE
3.9853;48.5852;10289;10380;PLANCY L ABBAYE
3.9853;48.5852;10289;10380;PLANCY L ABBAYE
3.0914;50.3823;59178;59500;DOUAI
3.0914;50.3823;59178;59500;DOUAI
3.0914;50.3823;59178;59500;DOUAI
-1.4771;46.4091;85127;85560;LONGEVILLE SUR MER
4.8442;44.2929;26345;26790;SUZE LA ROUSSE
0.3761;45.35;24573;24320;VERTEILLAC
-0.7115;48.1255;53140;53950;LOUVERNE
-1.8403;46.8354;85047;85300;CHALLANS
2.6141;48.692;77053;77170;BRIE COMTE ROBERT
1.7364;44.1561;82155;82140;ST ANTONIN NOBLE VAL
-0.4267;46.3946;79109;79410;ECHIRE
4.1048;49.9426;02381;02500;HIRSON
5.4031;45.8118;38247;38390;MONTALIEU VERCIEU
3.6168;50.1851;59464;59218;POIX DU NORD
0.5899;43.6056;32307;32550;PAVIE
3.9432;50.0621;59218;59219;ETROEUNGT
3.7492;43.5855;34202;34570;PIGNAN
2.0363;45.4217;19073;19300;EGLETONS
1.5624;46.7276;36101;36350;LUANT
6.9077;48.6916;57253;57815;GONDREXANGE
3.8601;45.6641;42298;42990;SAUVAIN
5.738;46.4389;39333;39260;MOIRANS EN MONTAGNE
6.1158;49.0552;57039;57685;AUGNY
3.1668;43.6126;34028;34600;BEDARIEUX
5.0015;47.4189;21408;21380;MESSIGNY ET VANTOUX
5.0015;47.4189;21408;21380;MESSIGNY ET VANTOUX
-0.0768;43.1074;65286;65100;LOURDES
4.214;44.4602;07117;07230;LABLACHERE
6.3495;43.1622;83019;83230;BORMES LES MIMOSAS
7.1837;49.0463;57006;57412;ACHEN
0.2864;42.7588;65388;65170;ST LARY SOULAN
-0.5654;45.3646;17236;17150;MIRAMBEAU
-0.5654;45.3646;17236;17150;MIRAMBEAU
2.5556;44.9956;15252;15590;VELZIC
-0.6148;48.3075;53147;53100;MAYENNE
1.9584;44.1633;82088;82250;LAGUEPIE
3.6764;46.5306;03102;03290;DOMPIERRE SUR BESBRE
2.6167;46.5401;03297;03190;VALLON EN SULLY
-1.1645;46.4511;85128;85400;LUCON
-0.8129;45.0075;33104;33480;CASTELNAU DE MEDOC
-1.3048;48.1899;35347;35450;VAL D IZE
0.5017;49.47;27485;27680;QUILLEBEUF SUR SEINE
4.9501;47.3386;21485;21370;PLOMBIERES LES DIJON
7.2401;47.7987;68375;68310;WITTELSHEIM
-1.2624;46.3042;85001;85460;L AIGUILLON SUR MER
-1.5971;48.1202;35051;35510;CESSON SEVIGNE
6.2047;48.6672;54274;54140;JARVILLE LA MALGRANGE
-4.0911;47.9971;29232;29000;QUIMPER
3.7441;45.8055;42159;42440;NOIRETABLE
0.1903;49.5443;76447;76290;MONTIVILLIERS
-0.0132;48.7322;61006;61200;ARGENTAN
3.3001;50.3682;59227;59179;FENAIN
2.9794;44.931;15142;15260;NEUVEGLISE
1.0659;48.0341;41075;41270;DROUE
-1.3677;48.4132;35257;35460;ST BRICE EN COGLES
2.5041;48.8424;94058;94170;LE PERREUX SUR MARNE
1.8699;48.8544;78062;78650;BEYNES
1.8699;48.8544;78062;78650;BEYNES
1.8699;48.8544;78062;78650;BEYNES
-0.3928;49.3225;14562;14750;ST AUBIN SUR MER
6.9449;48.5859;54129;54480;CIREY SUR VEZOUZE
2.8602;43.6934;81192;81320;MURAT SUR VEBRE
9.001;41.8907;2A056;20142;CAMPO
4.0357;44.1507;30077;30480;CENDRAS
-1.275;43.242;64436;64780;OSSES
4.133;48.2913;10357;10410;ST PARRES AUX TERTRES
0.6999;45.6319;24328;24360;PIEGUT PLUVIERS
3.2014;45.6105;63121;63114;COUDES
6.2752;47.0339;25415;25920;MOUTHIER HAUTE PIERRE
4.9411;43.9622;84119;84450;ST SATURNIN LES AVIGNON
2.1103;43.2514;11049;11150;BRAM
7.2655;43.7525;06060;06950;FALICON
3.87;43.7692;34276;34270;ST MATHIEU DE TREVIERS
3.4372;46.4667;03197;03340;NEUILLY LE REAL
6.5653;44.9527;05161;05240;LA SALLE LES ALPES
2.7098;48.8731;77243;77400;LAGNY SUR MARNE
3.4032;44.7967;48132;48120;ST ALBAN SUR LIMAGNOLE
6.6516;47.2636;25051;25380;BELLEHERBE
6.6516;47.2636;25051;25380;BELLEHERBE
9.5095;42.3683;2B313;20230;SAN NICOLAO
9.5095;42.3683;2B313;20230;SAN NICOLAO
9.5095;42.3683;2B313;20230;SAN NICOLAO
3.4186;49.9541;02334;02230;FRESNOY LE GRAND
-0.6569;44.4849;33202;33125;HOSTENS
1.4458;48.4625;28229;28300;MAINVILLIERS
-0.2577;49.2745;14488;14150;OUISTREHAM
2.3845;43.2842;11099;11600;CONQUES SUR ORBIEL
-1.2294;47.6531;44170;44670;ST JULIEN DE VOUVANTES
5.7917;45.1823;38179;38610;GIERES
6.8506;43.6969;06130;06460;ST VALLIER DE THIEY
1.9607;43.323;11076;11400;CASTELNAUDARY
-3.3022;47.7184;56193;56670;RIANTEC
6.6267;44.2615;04006;04260;ALLOS
6.6267;44.2615;04006;04260;ALLOS
-0.2156;45.618;16366;16130;SEGONZAC
-3.6455;47.806;29150;29350;MOELAN SUR MER
-3.6455;47.806;29150;29350;MOELAN SUR MER
5.051;45.0172;26057;26300;BOURG DE PEAGE
4.9201;48.2455;52140;52330;COLOMBEY LES DEUX EGLISES
4.9201;48.2455;52140;52330;COLOMBEY LES DEUX EGLISES
4.9201;48.2455;52140;52330;COLOMBEY LES DEUX EGLISES
4.9201;48.2455;52140;52330;COLOMBEY LES DEUX EGLISES
4.9201;48.2455;52140;52330;COLOMBEY LES DEUX EGLISES
4.9201;48.2455;52140;52330;COLOMBEY LES DEUX EGLISES
4.9201;48.2455;52140;52330;COLOMBEY LES DEUX EGLISES
4.9201;48.2455;52140;52330;COLOMBEY LES DEUX EGLISES
0.918;49.8227;76400;76810;LUNERAY
2.7776;50.2126;62151;62175;BOISLEUX AU MONT
1.8487;48.9627;78029;78410;AUBERGENVILLE
1.8487;48.9627;78029;78410;AUBERGENVILLE
4.2285;45.247;43224;43600;STE SIGOLENE
4.2381;44.6298;07107;07380;JAUJAC
-0.5128;47.4272;49246;49130;LES PONTS DE CE
-0.5128;47.4272;49246;49130;LES PONTS DE CE
1.2185;49.2237;27598;27430;ST PIERRE DU VAUVRAY
3.2408;45.749;63226;63115;MEZEL
5.5133;47.6322;70122;70600;CHAMPLITTE
5.5133;47.6322;70122;70600;CHAMPLITTE
5.5133;47.6322;70122;70600;CHAMPLITTE
5.5133;47.6322;70122;70600;CHAMPLITTE
5.5133;47.6322;70122;70600;CHAMPLITTE
5.5133;47.6322;70122;70600;CHAMPLITTE
4.2679;43.8339;30075;30820;CAVEIRAC
5.9702;46.1152;74288;74520;VALLEIRY
4.0823;43.7756;30321;30250;SOMMIERES
-1.6895;48.2193;35173;35520;MELESSE
1.4415;44.6461;46267;46310;ST GERMAIN DU BEL AIR
1.9017;45.8375;23165;23460;ROYERE DE VASSIVIERE
1.4658;44.7938;46215;46350;PAYRAC
2.9818;43.9707;12203;12250;ROQUEFORT SUR SOULZON
4.9492;48.628;52448;52100;ST DIZIER
-0.9431;47.8454;53084;53400;CRAON
2.4657;45.1969;15006;15380;ANGLARDS DE SALERS
5.7019;45.1259;38317;38800;LE PONT DE CLAIX
0.7735;44.0865;82050;82340;DUNES
-1.2809;43.8493;40150;40550;LEON
7.7313;48.52;67218;67400;ILLKIRCH GRAFFENSTADEN
3.646;46.8494;58046;58340;CERCY LA TOUR
4.6795;44.3065;84064;84840;LAPALUD
-3.164;48.3228;22321;22480;ST NICOLAS DU PELEM
2.0912;48.865;78372;78160;MARLY LE ROI
2.0912;48.865;78372;78160;MARLY LE ROI
-1.3347;46.7216;85089;85280;LA FERRIERE
2.8232;46.483;03084;03430;COSNE D ALLIER
7.0468;48.738;57630;57400;SARREBOURG
5.5727;47.2916;70408;70140;PESMES
1.4008;43.4585;31248;31860;LABARTHE SUR LEZE
2.2666;43.509;81120;81290;LABRUGUIERE
5.1101;43.852;84099;84440;ROBION
0.684;45.5303;24311;24300;NONTRON
1.6825;50.8883;62899;62179;WISSANT
-2.7246;47.6229;56243;56860;SENE
5.5674;43.7215;84133;84240;LA TOUR D AIGUES
0.3935;43.1171;65258;65300;LANNEMEZAN
3.1046;42.5026;66148;66660;PORT VENDRES
8.8939;41.9042;2A085;20117;CAURO
4.3002;45.1133;43244;43190;TENCE
4.2059;46.0733;42074;42460;COUTOUVRE
7.6303;48.2551;67486;67920;SUNDHOUSE
-4.5991;48.3774;29212;29280;PLOUZANE
0.7117;45.8638;16070;16150;CHABANAIS
2.6824;45.8601;63283;63380;PONTAUMUR
-1.4059;48.0678;35096;35113;DOMAGNE
-1.4059;48.0678;35096;35113;DOMAGNE
-4.0955;48.5919;29213;29440;PLOUZEVEDE
3.9553;49.4433;02360;02190;GUIGNICOURT
-2.0281;47.2864;44116;44560;PAIMBOEUF
-0.2546;47.678;49127;49430;DURTAL
1.7536;44.2421;82038;82160;CAYLUS
-0.5138;46.0442;17211;17330;LOULAY
0.1178;49.2917;14575;14950;ST ETIENNE LA THILLAYE
1.7149;47.7471;45179;45740;LAILLY EN VAL
4.2979;46.5966;71132;71420;CIRY LE NOBLE
2.0774;45.1366;19237;19220;ST PRIVAT
2.0355;44.8806;46311;46190;SOUSCEYRAC EN QUERCY
2.0355;44.8806;46311;46190;SOUSCEYRAC EN QUERCY
2.0355;44.8806;46311;46190;SOUSCEYRAC EN QUERCY
2.0355;44.8806;46311;46190;SOUSCEYRAC EN QUERCY
2.0355;44.8806;46311;46190;SOUSCEYRAC EN QUERCY
6.9491;48.2425;88445;88580;SAULCY SUR MEURTHE
-3.4418;47.7326;56162;56270;PLOEMEUR
-1.5608;47.3036;44035;44240;LA CHAPELLE SUR ERDRE
0.3104;43.4293;32252;32170;MIELAN
1.5197;45.5415;19129;19510;MASSERET
1.6791;43.2305;09185;09270;MAZERES
7.371;48.6942;67283;67440;MARMOUTIER
-1.3854;43.3617;64160;64250;CAMBO LES BAINS
2.0108;47.0801;36171;36260;REUILLY
7.2651;47.7341;68218;68790;MORSCHWILLER LE BAS
5.3614;49.1455;55545;55100;VERDUN
4.6835;47.1151;21087;21360;BLIGNY SUR OUCHE
-1.547;48.8024;50532;50380;ST PAIR SUR MER
0.0173;48.0221;72096;72550;COULANS SUR GEE
1.8869;43.5624;81076;81470;CUQ TOULZA
6.3628;43.5422;83058;83780;FLAYOSC
1.1651;47.5124;41167;41150;ONZAIN
5.223;46.2509;01451;01440;VIRIAT
2.6295;49.4263;60223;60190;ESTREES ST DENIS
5.7227;43.8065;04152;04860;PIERREVERT
3.3802;48.2982;89414;89260;THORIGNY SUR OREUSE
3.3802;48.2982;89414;89260;THORIGNY SUR OREUSE
3.3802;48.2982;89414;89260;THORIGNY SUR OREUSE
8.6898;42.3189;2A203;20147;PARTINELLO
5.7472;43.4939;83097;83910;POURRIERES
5.6439;43.2981;13042;13420;GEMENOS
-0.3041;43.9059;40331;40190;VILLENEUVE DE MARSAN
4.012;45.2876;43246;43530;TIRANGES
4.4504;45.6309;69238;69590;ST SYMPHORIEN SUR COISE
-1.9653;48.6038;35284;35430;ST JOUAN DES GUERETS
4.142;48.5278;10006;10700;ARCIS SUR AUBE
6.0539;48.922;54431;54700;PONT A MOUSSON
6.8752;44.7793;05003;05470;AIGUILLES
3.1554;50.2095;59294;59268;HAYNECOURT
1.4861;45.605;87146;87380;ST GERMAIN LES BELLES
6.8055;48.6556;57042;57810;AVRICOURT
3.4048;46.9959;58232;58270;ST BENIN D AZY
3.1546;50.6741;59163;59170;CROIX
6.3325;47.9382;70006;70320;AILLEVILLERS ET LYAUMONT
9.1891;41.9917;2A200;20134;PALNECA
3.2752;48.0341;89348;89330;ST JULIEN DU SAULT
1.1075;44.6334;24585;24550;VILLEFRANCHE DU PERIGORD
5.365;48.0375;52353;52800;NOGENT
5.365;48.0375;52353;52800;NOGENT
5.365;48.0375;52353;52800;NOGENT
5.365;48.0375;52353;52800;NOGENT
3.2163;50.7056;59650;59150;WATTRELOS
-4.3129;48.5801;29124;29260;LESNEVEN
6.1893;43.1018;83069;83400;HYERES
6.1893;43.1018;83069;83400;HYERES
6.1893;43.1018;83069;83400;HYERES
6.1893;43.1018;83069;83400;HYERES
6.1893;43.1018;83069;83400;HYERES
6.1893;43.1018;83069;83400;HYERES
6.1893;43.1018;83069;83400;HYERES
6.1893;43.1018;83069;83400;HYERES
6.1893;43.1018;83069;83400;HYERES
6.1893;43.1018;83069;83400;HYERES
0.7694;45.1738;24053;24330;BOULAZAC ISLE MANOIRE
-0.4435;47.6246;49347;49125;TIERCE
3.0088;48.5546;77327;77370;NANGIS
4.7125;45.7853;69127;69280;MARCY L ETOILE
4.5583;45.6582;69227;69850;ST MARTIN EN HAUT
4.5583;45.6582;69227;69850;ST MARTIN EN HAUT
1.7944;43.6896;81140;81500;LAVAUR
2.4233;43.7055;81305;81330;VABRE
4.6248;44.1622;30028;30200;BAGNOLS SUR CEZE
-3.6908;47.8491;29236;29340;RIEC SUR BELON
-1.865;48.6835;35049;35260;CANCALE
0.7614;43.8928;32370;32380;ST CLAR
-1.2529;47.0602;85076;85610;CUGAND
2.6752;48.943;77118;77410;CLAYE SOUILLY
2.6752;48.943;77118;77410;CLAYE SOUILLY
5.3892;43.8794;84003;84400;APT
-0.7349;44.1461;40246;40630;SABRES
4.6977;45.3609;42129;42520;MACLAS
1.4106;47.2831;41164;41140;NOYERS SUR CHER
6.5831;47.0634;25411;25500;MORTEAU
2.1312;50.0343;80711;80610;ST OUEN
5.5113;43.3533;13002;13190;ALLAUCH
5.5113;43.3533;13002;13190;ALLAUCH
-1.4661;43.4922;64102;64100;BAYONNE
3.2768;49.9118;02374;02420;LEHAUCOURT
4.7566;44.6566;07076;07350;CRUAS
0.1363;45.1823;24376;24410;ST AULAYE PUYMANGOU
0.1363;45.1823;24376;24410;ST AULAYE PUYMANGOU
1.0813;43.6145;32160;32600;L ISLE JOURDAIN
7.5907;48.2631;67547;67820;WITTISHEIM
2.8012;42.4601;66106;66480;MAUREILLAS LAS ILLAS
2.8012;42.4601;66106;66480;MAUREILLAS LAS ILLAS
2.8012;42.4601;66106;66480;MAUREILLAS LAS ILLAS
-2.5892;48.3939;22015;22510;BREHAND
-1.8182;47.084;44186;44680;STE PAZANNE
1.4428;45.7524;87174;87260;ST PAUL
4.5256;45.1157;07128;07520;LALOUVESC
1.7032;49.2132;95541;95770;ST CLAIR SUR EPTE
1.8459;42.9337;09160;09300;LAVELANET
2.7213;44.395;12157;12630;MONTROZIER
2.7213;44.395;12157;12630;MONTROZIER
1.9363;44.7254;46143;46120;LACAPELLE MARIVAL
1.7312;45.47;19118;19470;LE LONZAC
4.8688;45.6421;69291;69360;ST SYMPHORIEN D OZON
-2.0661;47.2254;44187;44320;ST PERE EN RETZ
3.3786;50.1025;59349;59191;LIGNY EN CAMBRESIS
0.445;43.757;32162;32360;JEGUN
5.2448;46.74;71419;71330;ST GERMAIN DU BOIS
3.9531;47.1892;58205;58230;OUROUX EN MORVAN
6.001;47.306;25133;25870;CHATILLON LE DUC
0.4109;43.5185;32256;32300;MIRANDE
1.8743;44.6722;46009;46320;ASSIER
4.7527;45.6781;69027;69530;BRIGNAIS
4.7527;45.6781;69027;69530;BRIGNAIS
-2.0087;48.3117;22208;22830;PLOUASNE
4.839;44.7874;26165;26250;LIVRON SUR DROME
4.839;44.7874;26165;26250;LIVRON SUR DROME
4.6052;49.8491;08361;08150;RENWEZ
1.565;44.333;46148;46230;LALBENQUE
4.4795;47.1276;21023;21230;ARNAY LE DUC
4.9614;45.7717;69275;69150;DECINES CHARPIEU
4.9614;45.7717;69275;69150;DECINES CHARPIEU
1.0804;48.8644;27198;27240;MESNILS SUR ITON
1.0804;48.8644;27198;27240;MESNILS SUR ITON
1.0804;48.8644;27198;27240;MESNILS SUR ITON
1.0804;48.8644;27198;27240;MESNILS SUR ITON
1.0804;48.8644;27198;27240;MESNILS SUR ITON
1.0804;48.8644;27198;27240;MESNILS SUR ITON
1.0804;48.8644;27198;27240;MESNILS SUR ITON
5.9408;45.8555;74225;74150;RUMILLY
1.7197;43.4068;31582;31290;VILLEFRANCHE DE LAURAGAIS
-0.067;47.3228;49378;49680;VIVY
0.385;49.0237;14478;14290;ORBEC
2.4212;48.7238;94001;94480;ABLON SUR SEINE
3.4314;49.5045;02018;02320;ANIZY LE CHATEAU
-1.4005;46.387;85004;85750;ANGLES
0.3829;43.0795;65069;65250;LA BARTHE DE NESTE
4.983;47.2201;21295;21220;GEVREY CHAMBERTIN
2.3384;43.0789;11344;11250;ST HILAIRE
2.9454;46.9519;18108;18150;LA GUERCHE SUR L AUBOIS
0.8965;44.2748;47025;47470;BEAUVILLE
1.935;45.743;23077;23340;FAUX LA MONTAGNE
-0.3481;46.0203;17024;17470;AULNAY
-0.3481;46.0203;17024;17470;AULNAY
6.7252;47.4835;25048;25550;BAVANS
0.4995;47.9958;72046;72370;LE BREIL SUR MERIZE
3.6606;43.4939;34213;34560;POUSSAN
4.8886;45.7707;69266;69100;VILLEURBANNE
-0.4741;43.1003;64062;64260;ARUDY
1.4286;50.0413;76255;76260;EU
4.7508;49.8477;08081;08120;BOGNY SUR MEUSE
2.8812;49.4793;60636;60150;THOUROTTE
2.6231;43.8788;12248;12380;ST SERNIN SUR RANCE
8.9354;41.5718;2A272;20100;SARTENE
2.9065;43.0517;11295;11490;PORTEL DES CORBIERES
-0.292;48.3394;53271;53700;VILLAINES LA JUHEL
2.907;45.4968;63038;63610;BESSE ET ST ANASTAISE
2.907;45.4968;63038;63610;BESSE ET ST ANASTAISE
2.907;45.4968;63038;63610;BESSE ET ST ANASTAISE
0.3261;47.5267;37062;37330;CHATEAU LA VALLIERE
-0.4032;47.7255;49220;49640;MORANNES SUR SARTHE
-0.4032;47.7255;49220;49640;MORANNES SUR SARTHE
2.5777;49.1114;60494;60128;PLAILLY
0.9871;47.3075;37027;37150;BLERE
8.8365;41.9352;2A032;20129;BASTELICACCIA
1.3078;43.4491;31395;31600;MURET
2.4391;46.5533;18278;18360;VESDUN
5.1399;45.8591;01032;01360;BELIGNEUX
5.1399;45.8591;01032;01360;BELIGNEUX
5.1399;45.8591;01032;01360;BELIGNEUX
5.1399;45.8591;01032;01360;BELIGNEUX
5.0221;47.9477;52017;52210;ARC EN BARROIS
-3.6301;48.3457;29227;29246;POULLAOUEN
-0.4794;46.8546;79049;79300;BRESSUIRE
-0.4794;46.8546;79049;79300;BRESSUIRE
-0.4794;46.8546;79049;79300;BRESSUIRE
-0.4794;46.8546;79049;79300;BRESSUIRE
-0.4794;46.8546;79049;79300;BRESSUIRE
-0.4794;46.8546;79049;79300;BRESSUIRE
-0.4794;46.8546;79049;79300;BRESSUIRE
-0.4794;46.8546;79049;79300;BRESSUIRE
-0.4794;46.8546;79049;79300;BRESSUIRE
5.3155;43.4027;13071;13170;LES PENNES MIRABEAU
5.3155;43.4027;13071;13170;LES PENNES MIRABEAU
5.3155;43.4027;13071;13170;LES PENNES MIRABEAU
1.7813;43.2946;11371;11410;SALLES SUR L HERS
3.981;48.3442;10349;10180;ST LYE
3.981;48.3442;10349;10180;ST LYE
-0.2852;49.1782;14301;14730;GIBERVILLE
1.7819;49.4416;60577;60850;ST GERMER DE FLY
2.3531;48.7668;94021;94550;CHEVILLY LARUE
4.0651;45.4252;42204;42380;ST BONNET LE CHATEAU
0.551;47.9678;72042;72440;BOULOIRE
6.2722;45.166;73242;73530;ST JEAN D ARVES
1.9837;49.1479;95370;95640;MARINES
4.8053;44.75;26166;26270;LORIOL SUR DROME
7.3657;43.834;06057;06440;L ESCARENE
1.7063;45.2479;19038;19330;CHAMEYRAT
-3.6238;48.0427;56081;56560;GUISCRIFF
3.1698;43.2737;34135;34710;LESPIGNAN
9.2847;42.2768;2B292;20212;SANT ANDREA DI BOZIO
3.0478;50.6317;59350;59777;LILLE
3.0478;50.6317;59350;59000;LILLE
3.0478;50.6317;59350;59260;LILLE
3.0478;50.6317;59350;59160;LILLE
3.0478;50.6317;59350;59800;LILLE
5.6132;43.559;13111;13126;VAUVENARGUES
1.6246;47.7092;41220;41220;ST LAURENT NOUAN
1.6246;47.7092;41220;41220;ST LAURENT NOUAN
3.338;46.7193;58104;58390;DORNES
0.8457;49.8142;76272;76740;FONTAINE LE DUN
5.3732;43.9587;84118;84490;ST SATURNIN LES APT
5.5322;43.3942;13020;13950;CADOLIVE
3.6379;47.5231;89091;89660;CHATEL CENSOIR
2.9314;43.4211;34245;34360;ST CHINIAN
1.6551;46.1597;23095;23240;LE GRAND BOURG
-0.4664;46.7323;79076;79430;LA CHAPELLE ST LAURENT
2.2383;48.8837;92062;92800;PUTEAUX
2.0393;50.9812;62645;62215;OYE PLAGE
-0.1996;46.9829;79329;79100;THOUARS
-0.7681;47.0186;49192;49360;MAULEVRIER
7.2717;48.0636;68374;68920;WINTZENHEIM
7.2717;48.0636;68374;68124;WINTZENHEIM
-3.0313;47.8754;56010;56150;BAUD
9.0143;42.6079;2B034;20226;BELGODERE
9.0143;42.6079;2B034;20226;BELGODERE
-2.8912;48.0614;56151;56920;NOYAL PONTIVY
0.0755;43.2907;65072;65460;BAZET
-0.3107;49.1694;14437;14120;MONDEVILLE
2.1746;48.9396;78586;78500;SARTROUVILLE
2.6612;48.7901;77390;77680;ROISSY EN BRIE
6.0333;46.5258;39368;39400;HAUTS DE BIENNE
6.0333;46.5258;39368;39400;HAUTS DE BIENNE
6.0333;46.5258;39368;39400;HAUTS DE BIENNE
4.8841;44.8758;26252;26800;PORTES LES VALENCE
4.5586;45.5041;42103;42320;LA GRAND CROIX
7.3325;43.7079;06011;06310;BEAULIEU SUR MER
-0.3129;44.9726;33548;33141;VILLEGOUGE
6.9152;47.7255;90041;90170;ETUEFFONT
5.254;43.4142;13102;13730;ST VICTORET
5.1377;43.8418;84071;84660;MAUBEC
-0.0964;43.006;65025;65400;ARGELES GAZOST
5.9378;45.6612;73103;73420;DRUMETTAZ CLARAFOND
7.7349;48.4613;67378;67115;PLOBSHEIM
5.9351;48.8146;54160;54385;DOMEVRE EN HAYE
3.5412;45.758;63125;63120;COURPIERE
2.4942;45.9084;23131;23420;MERINCHAL
3.1955;50.3412;59390;59176;MASNY
9.2892;42.3898;2B304;20244;SAN LORENZO
1.6737;48.7325;78171;78113;CONDE SUR VESGRE
5.5568;46.8254;39508;39230;SELLIERES
6.4533;47.8554;70435;70280;RADDON ET CHAPENDU
1.6178;48.9114;78192;78111;DAMMARTIN EN SERVE
4.857;43.6119;13097;13310;ST MARTIN DE CRAU
1.484;43.6542;31561;31240;L UNION
1.9148;50.0615;80635;80580;PONT REMY
-3.1533;48.5613;22070;22200;GUINGAMP
2.9361;50.2459;62864;62156;VIS EN ARTOIS
2.8112;50.3776;62861;62580;VIMY
6.1561;49.2085;57433;57280;MAIZIERES LES METZ
-1.0587;45.6446;17461;17640;VAUX SUR MER
1.7732;48.4694;28015;28700;AUNEAU BLEURY ST SYMPHORIEN
1.7732;48.4694;28015;28700;AUNEAU BLEURY ST SYMPHORIEN
1.7732;48.4694;28015;28700;AUNEAU BLEURY ST SYMPHORIEN
4.1217;50.0755;59601;59132;TRELON
-0.4736;47.4513;49353;49800;TRELAZE
4.2508;44.1326;30055;30580;BROUZET LES ALES
2.7642;42.7053;66140;66370;PEZILLA LA RIVIERE
3.1641;45.6732;63455;63960;VEYRE MONTON
2.4174;48.7643;94022;94600;CHOISY LE ROI
4.6444;44.9052;07338;07240;VERNOUX EN VIVARAIS
1.5233;50.0192;80063;80770;BEAUCHAMPS
2.9564;43.2306;11258;11120;MOUSSAN
3.5612;49.0016;02209;02330;CONDE EN BRIE
-1.5202;47.1415;44198;44840;LES SORINIERES
1.8753;48.8886;78368;78124;MAREIL SUR MAULDRE
-3.3911;47.7159;56107;56260;LARMOR PLAGE
5.8383;45.204;38150;38420;DOMENE
6.3214;48.4796;54054;54290;BAYON
5.1909;44.07;84082;84570;MORMOIRON
3.0586;50.4394;62497;62790;LEFOREST
0.0558;43.3911;65460;65500;VIC EN BIGORRE
1.9609;42.438;66025;66760;BOURG MADAME
1.9609;42.438;66025;66760;BOURG MADAME
2.8266;50.4039;62065;62210;AVION
2.463;48.6601;91600;91450;SOISY SUR SEINE
2.3598;48.7242;91479;94390;PARAY VIEILLE POSTE
2.3598;48.7242;91479;91550;PARAY VIEILLE POSTE
6.9505;43.5849;06108;06550;LA ROQUETTE SUR SIAGNE
2.915;42.7487;66141;66380;PIA
1.0557;42.9166;09085;09800;CASTILLON EN COUSERANS
6.1307;48.387;54156;54930;DIARVILLE
2.0379;50.0258;80296;80830;L ETOILE
5.6336;49.101;55198;55160;FRESNES EN WOEVRE
2.3998;48.9323;93027;93120;LA COURNEUVE
0.23;49.5632;76238;76133;EPOUVILLE
0.2053;49.7047;76254;76790;ETRETAT
-1.4998;47.2032;44190;44230;ST SEBASTIEN SUR LOIRE
3.3311;48.1264;89443;89510;VERON
5.8888;45.282;38140;38920;CROLLES
4.1741;46.1663;42052;42190;CHARLIEU
4.3415;49.7612;08254;08290;LIART
7.0832;43.6277;06018;06410;BIOT
3.6073;45.5783;63314;63890;ST AMANT ROCHE SAVINE
6.4123;43.1656;83070;83980;LE LAVANDOU
6.4123;43.1656;83070;83980;LE LAVANDOU
5.2311;43.4971;13081;13340;ROGNAC
5.531;43.4057;13101;13119;ST SAVOURNIN
1.6954;46.4793;36146;36190;ORSENNES
3.108;45.8319;63063;63118;CEBAZAT
2.4933;48.9458;93005;93600;AULNAY SOUS BOIS
4.708;45.9423;69009;69480;ANSE
-0.3782;49.313;14354;14830;LANGRUNE SUR MER
3.1926;48.3984;77025;77118;BAZOCHES LES BRAY
5.2795;45.0771;38409;38680;ST JUST DE CLAIX
5.6364;44.9213;38242;38650;MONESTIER DE CLERMONT
2.329;48.7295;91689;91320;WISSOUS
5.8537;43.1386;83090;83190;OLLIOULES
-0.7046;49.2777;14047;14400;BAYEUX
2.9156;50.544;59670;59272;DON
3.2932;49.5493;02318;02670;FOLEMBRAY
6.1761;48.5959;54459;54630;RICHARDMENIL
-0.5478;44.8016;33039;33130;BEGLES
-0.5483;45.0115;33004;33810;AMBES
2.2013;49.1229;95480;95620;PARMAIN
6.7403;49.0344;57409;57660;LIXING LES ST AVOLD
5.5711;46.136;01373;01430;ST MARTIN DU FRENE
-4.1617;47.8526;29085;29980;ILE TUDY
-0.4216;49.1956;14587;14280;ST GERMAIN LA BLANCHE HERBE
2.3229;49.0297;95199;95330;DOMONT
1.9959;48.9368;78672;78670;VILLENNES SUR SEINE
2.1603;48.8411;92076;92420;VAUCRESSON
2.6513;47.4564;18269;18260;VAILLY SUR SAULDRE
4.8842;46.817;71154;71530;CRISSEY
5.7151;45.2194;38423;38950;ST MARTIN LE VINOUX
-0.626;48.6891;61376;61490;ST CLAIR DE HALOUZE
-1.8166;48.1221;35131;35590;L HERMITAGE
1.2043;45.7656;87021;87110;BOSMIE L AIGUILLE
4.5952;45.2258;07342;07690;VILLEVOCANCE
3.488;50.3037;59369;59233;MAING
5.4124;44.9725;26074;26420;LA CHAPELLE EN VERCORS
5.4124;44.9725;26074;26420;LA CHAPELLE EN VERCORS
2.2517;48.7504;91645;91370;VERRIERES LE BUISSON
0.3524;46.5486;86214;86280;ST BENOIT
2.3854;48.7608;94073;94320;THIAIS
1.8277;44.9808;19019;19120;BEAULIEU SUR DORDOGNE
7.0064;43.573;06030;06110;LE CANNET
7.0064;43.573;06030;06110;LE CANNET
7.1955;48.1103;68173;68910;LABAROCHE
1.2484;49.1183;27191;27490;CLEF VALLEE D EURE
1.2484;49.1183;27191;27490;CLEF VALLEE D EURE
1.2484;49.1183;27191;27490;CLEF VALLEE D EURE
1.8285;47.8887;45075;45380;LA CHAPELLE ST MESMIN
6.075;48.6093;54432;54550;PONT ST VINCENT
5.2283;43.3905;13043;13180;GIGNAC LA NERTHE
5.2283;43.3905;13043;13180;GIGNAC LA NERTHE
2.4375;48.8185;94069;94410;ST MAURICE
1.7408;48.9524;78291;78930;GUERVILLE
6.1065;49.2987;57206;57290;FAMECK
6.1065;49.2987;57206;57290;FAMECK
6.1065;49.2987;57206;57290;FAMECK
-0.2326;44.5632;33435;33490;ST MACAIRE
-0.2522;48.7664;61339;61210;PUTANGES LE LAC
-0.2522;48.7664;61339;61210;PUTANGES LE LAC
-0.2522;48.7664;61339;61210;PUTANGES LE LAC
-0.2522;48.7664;61339;61210;PUTANGES LE LAC
-0.2522;48.7664;61339;61210;PUTANGES LE LAC
-0.2522;48.7664;61339;61210;PUTANGES LE LAC
-0.2522;48.7664;61339;61210;PUTANGES LE LAC
-0.2522;48.7664;61339;61210;PUTANGES LE LAC
-0.2522;48.7664;61339;61210;PUTANGES LE LAC
1.8532;43.3468;11178;11320;LABASTIDE D ANJOU
3.1131;50.2821;59015;59151;ARLEUX
6.2892;44.4435;04033;04340;LA BREOLE
3.0636;50.4729;59592;59239;THUMERIES
5.5469;43.4262;13046;13850;GREASQUE
2.9485;43.0903;11285;11440;PEYRIAC DE MER
-1.1011;45.658;17380;17420;ST PALAIS SUR MER
-1.1011;45.658;17380;17420;ST PALAIS SUR MER
0.8796;45.7409;87111;87150;ORADOUR SUR VAYRES
1.8613;50.146;80260;80132;DRUCAT
4.8099;44.1289;84087;84100;ORANGE
6.4616;45.6664;73298;73790;TOURS EN SAVOIE
7.069;47.8269;68040;68620;BITSCHWILLER LES THANN
7.4365;48.0652;68007;68280;ANDOLSHEIM
-0.0038;43.9868;40102;40310;GABARRET
0.301;46.1412;86078;86400;CIVRAY
1.3062;47.5817;41018;41000;BLOIS
1.9798;48.8801;78233;78810;FEUCHEROLLES
2.98;42.5525;66168;66690;ST ANDRE
2.3315;48.7916;94016;94230;CACHAN
3.9539;50.2578;59365;59720;LOUVROIL
0.7784;45.2097;24557;24750;TRELISSAC
3.8322;43.5716;34270;34430;ST JEAN DE VEDAS
2.9667;42.8959;11144;11510;FITOU
2.9667;42.8959;11144;11510;FITOU
-0.7503;46.3642;85133;85420;MAILLEZAIS
0.3692;46.6054;86041;86180;BUXEROLLES
-0.5535;43.1875;64209;64870;ESCOUT
4.7864;45.6081;69096;69520;GRIGNY
-1.5497;47.1762;44143;44400;REZE
-1.5497;47.1762;44143;44400;REZE
2.3509;48.6563;91434;91390;MORSANG SUR ORGE
1.9459;42.8315;11028;11340;BELCAIRE
6.7344;47.1549;25512;25210;LE RUSSEY
3.1351;48.6643;77239;77970;JOUY LE CHATEL
1.8953;48.716;78220;78690;LES ESSARTS LE ROI
1.8953;48.716;78220;78690;LES ESSARTS LE ROI
2.5253;48.747;94004;94470;BOISSY ST LEGER
5.2515;48.8855;55442;55260;RAIVAL
5.2515;48.8855;55442;55260;RAIVAL
-1.3871;49.4974;50341;50310;MONTEBOURG
2.1665;48.8303;92047;92430;MARNES LA COQUETTE
2.9343;47.4853;58044;58440;LA CELLE SUR LOIRE
1.6161;49.312;27226;27150;ETREPAGNY
0.5848;49.6571;76258;76640;FAUVILLE EN CAUX
3.3116;43.8717;34064;34520;LE CAYLAR
2.2477;43.2549;11288;11170;PEZENS
2.3601;48.7929;94076;94800;VILLEJUIF
2.5696;45.7634;63175;63470;HERMENT
2.1285;46.9913;18055;18290;CHAROST
5.1698;43.8313;84086;84580;OPPEDE
6.1933;47.2972;25197;25960;DELUZ
1.6932;44.9451;46330;46110;VAYRAC
-1.4297;43.5957;40133;40530;LABENNE
-1.4362;46.4893;85156;85540;MOUTIERS LES MAUXFAITS
4.7984;45.8147;69194;69370;ST DIDIER AU MONT D OR
2.4625;48.6952;91421;91230;MONTGERON
2.5737;48.5885;77445;77176;SAVIGNY LE TEMPLE
-1.6848;47.185;44101;44620;LA MONTAGNE
3.9011;45.061;43046;43770;CHADRAC
1.3993;45.9534;87002;87240;AMBAZAC
2.6555;48.8167;77146;77183;CROISSY BEAUBOURG
2.6555;48.8167;77146;77183;CROISSY BEAUBOURG
6.4748;43.1643;83152;83820;RAYOL CANADEL SUR MER
6.4748;43.1643;83152;83820;RAYOL CANADEL SUR MER
2.9611;50.591;59553;59211;SANTES
1.5992;50.5084;62826;62520;LE TOUQUET PARIS PLAGE
2.1784;48.9119;78124;78420;CARRIERES SUR SEINE
2.7197;50.5033;62034;62149;ANNEQUIN
0.7861;49.8669;76735;76980;VEULES LES ROSES
1.1555;49.4445;76212;76160;DARNETAL
6.0907;48.562;54596;54990;XEUILLEY
7.5441;48.0239;68352;68600;VOLGELSHEIM
-0.4284;45.7779;17072;17770;BURIE
6.123;48.721;54115;54250;CHAMPIGNEULLES
7.322;47.7894;68166;68260;KINGERSHEIM
6.9852;49.102;57340;57990;HUNDLING
4.5687;44.2832;30273;30760;ST JULIEN DE PEYROLAS
4.1607;49.1439;51614;51380;VERZY
5.8918;45.5595;73087;73160;COGNIN
4.7964;46.343;71235;71870;HURIGNY
2.1489;44.6622;46015;46270;BAGNAC SUR CELE
2.5416;48.7977;94019;94430;CHENNEVIERES SUR MARNE
7.7052;48.6233;67326;67207;NIEDERHAUSBERGEN
1.3905;43.6848;31182;31150;FENOUILLET
-1.3215;46.156;17360;17740;STE MARIE DE RE
5.7743;44.9566;38304;38119;PIERRE CHATEL
2.9281;49.0058;77483;77910;VARREDDES
2.2214;48.5778;91207;91520;EGLY
0.9477;49.8832;76395;76860;LONGUEIL
-0.407;43.2696;64284;64110;JURANCON
2.3173;47.8087;45270;45730;ST BENOIT SUR LOIRE
3.3823;48.984;02186;02570;CHEZY SUR MARNE
2.1971;48.784;78640;78140;VELIZY VILLACOUBLAY
2.1516;48.9523;78358;78600;MAISONS LAFFITTE
2.5793;50.4759;62400;62940;HAILLICOURT
1.0342;49.3808;76497;76650;PETIT COURONNE
4.2247;43.8372;30082;30870;CLARENSAC
3.13;50.3496;59170;59187;DECHY
4.704;46.2415;69103;69840;JULIENAS
2.7782;48.7399;77470;77220;TOURNAN EN BRIE
3.4665;47.8283;89083;89113;CHARBUY
5.1995;47.595;21599;21260;SELONGEY
5.8462;45.6441;73051;73370;LE BOURGET DU LAC
2.6516;42.7705;66096;66720;LATOUR DE FRANCE
7.3223;43.7122;06159;06230;VILLEFRANCHE SUR MER
4.8399;43.8825;13027;13160;CHATEAURENARD
-0.8393;49.1802;14035;14490;BALLEROY SUR DROME
-0.8393;49.1802;14035;14490;BALLEROY SUR DROME
2.2891;50.6751;62288;62129;ECQUES
7.2101;47.9097;68112;68500;GUEBWILLER
6.0371;49.254;57491;57250;MOYEUVRE GRANDE
6.0371;49.254;57491;57250;MOYEUVRE GRANDE
5.1511;43.7074;13003;13980;ALLEINS
5.1511;43.7074;13003;13980;ALLEINS
2.1354;49.2454;60395;60110;MERU
6.1296;45.6813;73081;73630;LE CHATELARD
1.3333;49.1752;27022;27940;LE VAL D HAZEY
3.0733;45.8275;63042;63112;BLANZAT
2.0737;48.3184;91390;91660;MEREVILLE
-0.8566;46.3543;85303;85770;VIX
3.5661;50.4736;59616;59690;VIEUX CONDE
3.0194;48.4317;77439;77148;SALINS
5.536;45.7444;01216;01680;LHUIS
6.1091;45.9566;74217;74370;PRINGY
6.1091;45.9566;74217;74370;PRINGY
6.0631;45.9189;74213;74330;POISY
4.8645;47.3003;21273;21410;FLEUREY SUR OUCHE
1.9211;48.8822;78189;78121;CRESPIERES
1.8404;48.9999;78327;78820;JUZIERS
2.5062;47.618;45108;45720;COULLONS
2.8112;50.3076;62753;62223;ST LAURENT BLANGY
4.1531;50.2373;59157;59149;COUSOLRE
1.1202;49.4718;76108;76230;BOIS GUILLAUME
3.4204;50.0451;59382;59238;MARETZ
-1.1774;44.4091;40046;40600;BISCARROSSE
-1.1774;44.4091;40046;40600;BISCARROSSE
4.2765;45.535;42005;42160;ANDREZIEUX BOUTHEON
2.0519;48.1622;45025;45480;BAZOCHES LES GALLERANDES
2.0519;48.1622;45025;45480;BAZOCHES LES GALLERANDES
4.085;44.0419;30214;30720;RIBAUTE LES TAVERNES
1.2401;45.7833;87048;87920;CONDAT SUR VIENNE
4.8419;45.822;69063;69660;COLLONGES AU MONT D OR
-0.0288;44.8619;33108;33350;CASTILLON LA BATAILLE
2.9448;42.7642;66050;66530;CLAIRA
0.2546;46.6823;86177;86170;NEUVILLE DE POITOU
2.8775;48.8994;77382;77860;QUINCY VOISINS
1.1858;49.6217;76125;76850;BOSC LE HARD
2.0025;49.5333;60590;60860;ST OMER EN CHAUSSEE
1.8781;47.9498;45302;45770;SARAN
2.8369;50.5358;59550;59496;SALOME
3.1088;50.6432;59410;59370;MONS EN BAROEUL
1.5761;50.7126;62667;62480;LE PORTEL
5.7698;47.0351;25021;25610;ARC ET SENANS
1.9868;49.4277;60591;60650;ST PAUL
2.0816;50.8846;62057;62370;AUDRUICQ
-1.0643;44.4779;40287;40460;SANGUINET
4.8198;45.1795;26333;26240;ST VALLIER
2.1741;49.0547;95394;95540;MERY SUR OISE
-0.5264;43.871;40281;40280;ST PIERRE DU MONT
6.4894;43.5025;83141;83720;TRANS EN PROVENCE
0.6876;45.1651;24138;24660;COULOUNIEIX CHAMIERS
5.183;43.7286;13053;13370;MALLEMORT
5.183;43.7286;13053;13370;MALLEMORT
6.011;44.4305;05162;05110;LA SAULCE
6.7627;47.3852;25463;25150;PONT DE ROIDE VERMONDANS
6.7627;47.3852;25463;25150;PONT DE ROIDE VERMONDANS
-1.4313;46.3565;85294;85360;LA TRANCHE SUR MER
-1.1742;44.6535;33009;33120;ARCACHON
-1.2442;47.9443;35125;35130;LA GUERCHE DE BRETAGNE
4.3541;46.6763;71306;71300;MONTCEAU LES MINES
1.3963;48.902;27183;27750;LA COUTURE BOUSSEY
5.2607;45.3834;38130;38260;LA COTE ST ANDRE
2.5392;48.7855;94055;94490;ORMESSON SUR MARNE
4.8429;43.843;13036;13630;EYRAGUES
-0.4414;47.3417;49050;49320;BRISSAC QUINCE
4.8816;44.0866;84039;84350;COURTHEZON
3.0906;47.0169;58117;58600;FOURCHAMBAULT
-0.529;43.1837;64207;64870;ESCOU
0.9487;49.3668;76550;76113;SAHURS
-0.5433;49.2865;14200;14480;CREULLY
2.2468;49.0202;95563;95320;ST LEU LA FORET
2.2606;48.7804;92060;92350;LE PLESSIS ROBINSON
2.2606;48.7804;92060;92350;LE PLESSIS ROBINSON
6.0611;49.2667;57597;57780;ROSSELANGE
1.6303;46.9727;36093;36110;LEVROUX
1.6303;46.9727;36093;36110;LEVROUX
4.2899;45.5622;42323;42340;VEAUCHE
-0.3054;44.6407;33081;33410;CADILLAC
5.1825;45.0663;26129;26730;EYMEUX
5.1825;45.0663;26129;26730;EYMEUX
5.6742;45.0431;38545;38450;VIF
5.786;49.5017;54367;54135;MEXY
6.1991;48.6511;54257;54180;HEILLECOURT
-1.7196;47.1941;44166;44640;ST JEAN DE BOISEAU
5.3201;46.1832;01072;01250;CEYZERIAT
-1.2712;47.3554;44115;44521;OUDON
2.6731;50.4231;62170;62172;BOUVIGNY BOYEFFLES
4.3909;46.7862;71309;71710;MONTCENIS
4.3799;49.3943;08239;08310;JUNIVILLE
3.9897;49.2701;51474;51370;ST BRICE COURCELLES
-0.7808;45.2511;33395;33180;ST ESTEPHE
3.5111;50.3754;59014;59410;ANZIN
3.1207;50.3677;59569;59450;SIN LE NOBLE
-1.3875;43.5324;40273;40390;ST MARTIN DE SEIGNANX
4.8573;45.6731;69276;69320;FEYZIN
2.2579;50.4504;62036;62134;ANVIN
